,Accepted_Name,Accepted_Species,Accepted_Species_ID,Accepted_ID,Accepted_Rank,bio1,bio4,bio10,bio11,bio12,bio15,bio16,bio17,brkl_elevation,elevation,slope,soil_nitrogen,soil_ph,soil_soc,soil_depth,soil_ocs,soil_water_cap,latitude,longitude,kg_mode,kg_all
0,Geniostoma antherotrichum,Geniostoma antherotrichum,546361-1,546361-1,Species,16.7311248779297,39.1782493591309,17.050624847412102,15.7440004348755,3841.5738525390652,24.2800006866455,1235.51525878906,651.558746337891,1683.08581542969,1872.6449584960951,8.57543182373047,493.41667175292946,52.7916660308838,732.635437011719,1053.25,117.3125,31.625,-6.083333,145.083,15,"[15, 1, 29, 2]"
1,Geniostoma antherotrichum var. antherotrichum,Geniostoma antherotrichum,546361-1,77230903-1,Variety,17.320750236511252,53.3392505645752,17.8459997177124,16.60987520217895,3172.94384765625,20.08962535858155,950.5077209472655,661.434997558594,1668.725769042965,1746.2274780273451,7.80858039855957,444.58332824707054,52.6666660308838,756.2083435058595,1253.0,113.125,30.15625,-6.666667,146.666667,1,"[1, 15]"
2,Geniostoma antherotrichum var. archboldianum,Geniostoma antherotrichum,546361-1,886534-1,Variety,18.8964996337891,52.6592483520508,19.3417491912842,18.1065006256104,6553.5,14.7379999160767,3028.89233398438,2146.2861328125,1130.30187988281,1469.77746582031,11.371319770813,548.270812988281,51.2708320617676,1000.0625,1027.25,126.25,34.75,-4.25,137.02,15,"[15, 29]"
3,Geniostoma densiflorum,Geniostoma densiflorum,546391-1,546391-1,Species,21.9492492675781,211.768997192383,24.6280002593994,19.2417507171631,1608.62670898438,43.036750793457,693.287231445312,226.372253417969,222.847640991211,202.722503662109,4.05791759490967,240.972229003906,53.1555557250977,427.0,1026.875,67.8181838989258,23.5625,-22.06889,166.38528,1,"[1, 14, 3, 0]"
4,Geniostoma densiflorum var. oleifolium,Geniostoma densiflorum,546391-1,886535-1,Variety,22.5332508087158,193.432754516602,24.9932498931885,20.023250579834,1599.28271484375,47.0429992675781,693.287231445312,206.970001220703,441.149597167969,107.597503662109,3.13041067123413,267.848480224609,53.7272720336914,440.25,582.75,71.2727279663086,24.375,-21.666667,166.216667,14,[14]
5,Geniostoma rupestre var. ligustrifolium,Geniostoma rupestre,546462-1,953860-1,Variety,13.2422504425049,306.938262939453,17.142749786377,9.40900039672852,1719.11474609375,18.2964992523193,536.195983886719,336.368255615234,238.401657104492,264.452514648438,3.25263667106628,367.791656494141,52.4375,1012.66668701172,1045.25,104.375,28.0625,-38.03915,175.3606,15,"[15, 0, 27]"
6,Geniostoma rupestre,Geniostoma rupestre,546462-1,546462-1,Species,21.6747493743896,178.356994628906,24.4330005645752,19.5031251907349,2267.70922851562,41.0872497558594,900.532775878906,332.193756103516,171.36287689209001,238.712493896484,4.086063385009765,281.09375,53.1555557250977,447.555541992188,1225.75,68.7333297729492,26.3125,-20.657245,165.15,1,"[14, 11, 1, 15, 2, 3, 0, 12]"
7,Geniostoma rupestre var. australianum,Geniostoma rupestre,546462-1,886538-1,Variety,21.513500213623,248.877746582031,24.2544994354248,17.447624206542997,1643.01794433594,85.9127502441406,982.658508300781,105.764251708984,534.451538085938,591.590026855469,4.73463916778564,181.31650543212902,54.90625,279.270843505859,1808.25,55.5,20.875,-17.1,145.616667,11,"[14, 3, 2, 11, 1, 6, 0]"
8,Geniostoma rupestre var. crassifolium,Geniostoma rupestre,546462-1,886540-1,Variety,22.7927494049072,201.204742431641,25.3632507324219,20.1760005950928,1176.39575195312,41.8745002746582,469.777252197266,155.801254272461,222.847640991211,17.0174999237061,0.723903357982635,263.111114501953,53.523811340332,447.555541992188,837.5,68.0714263916016,25.25,-22.178426,166.443092,3,[3]
9,Geniostoma rupestre var. glaberrimum,Geniostoma rupestre,546462-1,886543-1,Variety,26.3225002288818,59.523250579834,27.0144996643066,25.5157508850098,2563.93383789062,37.1051254272461,1082.93713378906,363.370513916016,18.444599270820603,17.30624961853028,0.522218927741051,304.916656494141,55.5,530.125,1297.0,64.3125,28.75,-15.599499999999999,-7.5789999999999935,1,[1]
10,Geniostoma rupestre var. lasiostemon,Geniostoma rupestre,546462-1,77217228-1,Variety,26.9412498474121,9.50899982452393,27.1392498016357,26.9384994506836,4855.7587890625,11.5737495422363,1339.50219726562,1080.17321777344,6.33240985870361,2.11500000953674,0.160937160253525,459.75,55.3333320617676,1476.0,1466.0,88.3333358764648,31.625,5.338833,163.002,0,"[1, 0]"
11,Geniostoma rupestre var. rupestre,Geniostoma rupestre,546462-1,77230242-1,Variety,24.0437507629395,70.4684982299805,24.8379993438721,23.0435009002686,3115.482421875,20.4794998168945,907.394775390625,527.013000488281,54.0803337097168,404.942504882812,6.78489351272583,336.666656494141,51.7708320617676,729.666687011719,1244.25,69.75,29.25,-7.361667,147.138333,1,"[1, 3]"
12,Geniostoma rupestre var. thymeleaceum,Geniostoma rupestre,546462-1,886549-1,Variety,21.6459999084473,213.748748779297,24.286750793457,18.9202499389648,2267.70922851562,41.0872497558594,900.532775878906,333.734497070312,121.520774841309,227.919998168945,3.77149224281311,240.972229003906,53.2777786254883,429.088897705078,837.5,68.0714263916016,24.0625,-22.18222,166.76306,1,"[1, 14]"
13,Geniostoma tinifolium,Geniostoma tinifolium,77183797-1,77183797-1,Species,21.753999710083,133.968505859375,23.3819999694824,20.0457496643066,2166.22216796875,30.2747497558594,698.961486816406,360.855499267578,311.349029541016,491.212493896484,4.51497507095337,319.75,58.1111106872559,505.166656494141,3683.75,61.0,29.25,20.8721,-156.615,15,"[15, 3, 1, 0]"
14,Geniostoma tinifolium var. tinifolium,Geniostoma tinifolium,77183797-1,77233423-1,Variety,20.303625106811502,133.717498779297,22.0153751373291,18.536375045776353,2189.0155029296848,27.48787498474125,714.0106201171875,385.522003173828,343.6800537109375,661.971237182617,8.641404628753666,403.652770996094,56.19583320617675,583.8374938964845,3369.0,80.07500076293945,31.625,21.504600000000003,-158.0625,15,"[15, 3, 1]"
15,Mitrasacme nudicaulis,Mitrasacme nudicaulis,546679-1,546679-1,Species,26.4099998474121,264.701995849609,29.1952495574951,22.5294990539551,1319.87377929688,112.383499145508,865.974731445312,5.75675010681152,222.540161132812,209.714996337891,0.671471238136292,81.4375,62.3333320617676,101.6875,2686.5,25.375,15.8125,-14.24613,132.468731,3,"[6, 0, 3, 11, 1, 15]"
16,Mitrasacme nudicaulis var. citrina,Mitrasacme nudicaulis,546679-1,990986-1,Variety,26.4139995574951,199.748992919922,28.636999130249,23.3112506866455,1293.49072265625,111.30924987793,854.732238769531,10.7182502746582,238.656509399414,174.482498168945,1.09094393253326,110.875,64.2083358764648,130.79167175293,3448.25,26.4375,17.0,-14.847275,126.133333,3,"[3, 6]"
17,Mitrasacme nudicaulis var. nudicaulis,Mitrasacme nudicaulis,546679-1,77223896-1,Variety,26.44287586212155,289.640502929688,29.5652503967285,22.2715005874634,948.487243652344,113.876247406006,650.956237792969,5.20550012588501,139.93351745605452,135.662506103516,0.859289586544037,75.6875,64.875,92.5208358764648,2292.25,27.0625,16.1875,-15.841203499999999,134.645331,3,"[11, 3, 6, 14]"
18,Mitrasacme pilosa,Mitrasacme pilosa,546687-1,546687-1,Species,13.893249988555901,326.180755615234,18.17549991607665,10.38162517547605,998.1826171875,19.6597499847412,327.301239013672,195.981750488281,156.462600708008,224.7687454223635,2.06155276298523,230.111114501953,54.875,587.416687011719,917.25,75.1428604125977,19.8125,-37.567549,148.744305,15,"[15, 14, 9, 16, 7, 0]"
19,Mitrasacme pilosa var. pilosa,Mitrasacme pilosa,546687-1,51770-3,Variety,13.29675006866455,311.0287475585935,17.2647495269775,9.58699989318848,1068.46069335938,23.550250053405748,336.289001464844,198.6711196899415,219.52770233154303,246.41249847412098,2.430518865585325,263.375,52.3846168518066,636.958312988281,1008.75,77.8125,20.4375,-37.8,146.43625,15,"[15, 14, 9, 7, 0, 16]"
20,Mitrasacme pilosa var. stuartii,Mitrasacme pilosa,546687-1,51799-3,Variety,13.8462495803833,277.980743408203,17.6702499389648,10.1052503585815,972.164489746094,15.377375125884999,290.757507324219,188.784744262695,112.9196701049805,96.2125015258789,1.49391114711761,232.64582824707,52.0729160308838,625.272705078125,918.25,79.0714263916016,20.625,-38.33043,148.250599,15,"[15, 0, 9, 16]"
21,Mitrasacme pygmaea,Mitrasacme pygmaea,546693-1,546693-1,Species,21.7835006713867,375.226745605469,25.60325050354,16.7727508544922,1568.84851074219,82.3637466430664,815.872009277344,90.036247253418,143.43766784668,146.755004882812,1.87435281276703,201.186111450195,56.527082443237305,255.3680572509765,2122.5,48.75,22.25,6.866667,139.272852,3,"[11, 0, 14, 3, 6, 21, 1, 25, 2, 15]"
22,Mitrasacme pygmaea var. pygmaea,Mitrasacme pygmaea,546693-1,52183-3,Variety,26.3947505950928,69.1027526855469,27.1832504272461,25.2872505187988,2492.78271484375,47.40625,964.370239257812,277.320739746094,45.4681434631348,29.9375,0.540301322937012,290.833343505859,52.1777763366699,534.444458007812,2784.25,61.3333320617676,26.0833339691162,-1.666531,121.922222,1,"[3, 1, 2, 0, 14]"
23,Neuburgia corynocarpa,Neuburgia corynocarpa,546787-1,546787-1,Species,24.410249710083,48.0082511901855,25.2612495422363,23.4637508392334,3126.75366210938,24.4799995422363,1012.01800537109,511.273498535156,258.069244384766,299.959991455078,4.02826642990112,357.13264465331997,52.6458320617676,691.3125,1239.5,70.875,28.625,-6.258333,146.842983,1,"[1, 0, 15]"
24,Neuburgia corynocarpa var. corynocarpa,Neuburgia corynocarpa,546787-1,77224650-1,Variety,26.6941251754761,33.25312423706055,27.00900077819825,26.1944999694824,3312.576171875,13.9835000038147,989.9857482910145,710.8577575683595,6.20498597621917,22.285000801086422,0.709890987724066,312.625,51.0833320617676,978.3666687011705,1378.5,57.5,28.5833330154419,-3.2718054999999997,143.3669445,1,"[0, 1]"
25,Spigelia valenzuelae,Spigelia valenzuelae,242241-2,242241-2,Species,17.3374996185303,222.851257324219,19.6407508850098,14.2309999465942,1219.22680664062,65.1100006103516,585.353271484375,89.9499969482422,1683.13024902344,1556.43005371094,5.59150505065918,221.0625,59.375,323.916656494141,1364.5,71.5625,24.4375,-18.178056,-63.821389,6,[6]
26,Strychnos cathayensis,Strychnos cathayensis,547102-1,547102-1,Species,21.9165000915527,365.62451171875,27.2752494812012,15.7752504348755,2319.40893554688,77.3434982299805,1266.66247558594,131.366256713867,288.512451171875,215.830001831055,2.17907786369324,270.380950927734,53.8461532592773,401.333343505859,679.25,58.5714302062988,25.4375,22.668333,120.749137,11,"[2, 12, 0, 14, 11]"
27,Strychnos minor,Strychnos minor,547339-1,547339-1,Species,24.9389991760254,85.01800155639646,26.1189994812012,22.8974990844727,2887.28125,60.2389984130859,1180.2789916992201,285.505630493164,163.238220214844,163.8850021362305,2.7485711574554452,269.583343505859,52.809028625488295,443.05207824707054,1819.875,59.6875,25.125,-7.333333,143.504723,1,"[2, 3, 0, 11, 1, 14, 15]"
28,Strychnos minor var. thorelii,Strychnos minor,547339-1,886553-1,Variety,27.5402507781982,120.814750671387,29.2730007171631,26.21875,1827.46130371094,77.5307464599609,881.944763183594,22.9300003051758,54.85595703125,66.0449981689453,0.355271548032761,170.72917175293,57.3541679382324,217.33332824707,9404.0,54.1875,23.5,12.5759,105.3894995,3,[3]
29,Strychnos mitscherlichii,Strychnos mitscherlichii,547341-1,547341-1,Species,25.523250579834,56.6500015258789,25.9872493743896,24.7162494659424,2461.60327148438,52.0410003662109,1005.53851318359,241.871002197266,159.792236328125,165.449996948242,0.355772942304611,224.846160888672,45.9555549621582,275.3125,2527.25,47.4375,22.625,-0.916667,-59.740833,1,"[1, 2, 3]"
30,Strychnos mitscherlichii var. mitscherlichii,Strychnos mitscherlichii,547341-1,77227814-1,Variety,25.6436252593994,50.7181262969971,26.20149993896485,24.9192504882812,2432.33349609375,41.8892517089844,1034.556030273435,280.186508178711,183.083099365234,118.745002746582,0.540352642536163,219.25,47.9583320617676,294.979156494141,2735.75,49.875,22.8125,-0.92,-67.80666500000001,1,"[1, 2, 3]"
31,Strychnos mitscherlichii var. pubescentior,Strychnos mitscherlichii,547341-1,247328-2,Variety,25.41887474060055,52.28962516784665,26.1669998168945,24.6539993286133,2434.01318359375,38.6684989929199,931.0615234375,289.619750976562,168.15927886962902,166.4375,0.372496336698532,189.22917175293,44.4166660308838,310.5,2288.0,47.4000015258789,22.8125,-3.84006893280016,-66.3641139963485,1,"[2, 1]"
32,Mitrasacme erophila,Mitrasacme erophila,546655-1,546655-1,Species,15.8187503814697,397.667755126953,20.0592498779297,9.93624973297119,6157.74462890625,98.0607528686523,4034.56372070312,92.9804992675781,1302.94177246094,1564.29748535156,2.26671457290649,470.5,51.9583320617676,448.625,4493.0,74.5625,27.9375,25.583333,91.633333,12,[12]
33,Mitrasacme erophila subsp. grandiflora,Mitrasacme erophila,546655-1,982476-1,Subspecies,22.2894992828369,204.370498657227,24.3320007324219,19.2137508392334,1428.32702636719,76.6622467041016,655.169738769531,29.6410007476807,926.739624023438,947.780029296875,2.74679803848267,196.9375,58.4166679382324,224.45832824707,2920.75,59.875,23.6875,17.8,98.366667,3,"[11, 3]"
34,Orianthera serpyllifolia,Orianthera serpyllifolia,77154375-1,77154375-1,Species,16.183000564575202,317.123748779297,19.865625381469748,12.0649995803833,839.92724609375,74.1005020141602,430.994995117188,48.2485008239746,87.6163444519043,90.8600006103516,0.667248845100403,158.25,61.903470993042,407.145843505859,2576.5,58.1875,14.5625,-33.918214,116.056372,9,"[7, 9, 8]"
35,Orianthera serpyllifolia subsp. angustifolia,Orianthera serpyllifolia,77154375-1,77154376-1,Subspecies,15.7607498168945,292.256011962891,19.5340003967285,12.47212505340575,906.661743164062,73.546501159668,477.972259521484,48.4347496032715,83.360107421875,81.9862518310547,0.957219302654266,171.94791412353499,62.0625,447.619049072266,2895.5,73.5625,14.5,-33.975833,116.1111,9,"[9, 8, 7, 0]"
36,Orianthera serpyllifolia subsp. serpyllifolia,Orianthera serpyllifolia,77154375-1,77232697-1,Subspecies,15.173499584198,281.6143646240235,18.7382507324219,11.8981251716614,895.215515136719,58.5562515258789,399.710510253906,73.3239974975586,106.1703605651855,109.879997253418,0.817422032356262,171.94791412353499,62.10073280334475,405.729156494141,2354.25,53.4000015258789,15.1875,-34.625589500000004,116.929722,9,"[9, 7, 8, 0]"
37,Adelphacme minima,Adelphacme minima,77154429-1,77154429-1,Species,15.9670000076294,260.185485839844,19.456750869751,12.0284996032715,839.92724609375,58.8914985656738,436.887756347656,73.8022537231445,106.587257385254,69.7149963378906,0.936375141143799,151.39582824707,62.4166679382324,381.555541992188,2007.75,45.533332824707,15.0625,-33.9,116.9,9,"[7, 9, 8]"
38,Antonia ovata,Antonia ovata,545655-1,545655-1,Species,24.9634990692139,108.408248901367,26.0160007476807,23.943000793457,1578.748046875,81.0770034790039,809.387756347656,28.9842491149902,412.99169921875,411.760009765625,1.10775983333588,147.375,52.75,188.97917175293,3151.75,45.25,19.375,-12.9,-48.4,3,"[3, 2, 1, 11, 12, 15, 6]"
39,Bonyunia antoniifolia,Bonyunia antoniifolia,545660-1,545660-1,Species,25.3362503051758,57.64512634277345,26.31462478637695,24.69775009155275,2337.87158203125,68.2115020751953,999.097778320312,93.2669982910156,287.512466430664,304.30000305175747,0.5943985283374791,171.4944381713865,46.2291660308838,200.9375,2434.25,47.7999992370605,19.25,-9.780502,-60.759715,3,"[3, 2, 1]"
40,Bonyunia aquatica,Bonyunia aquatica,34787-2,34787-2,Species,25.4791250228882,55.9512481689453,25.92624950408935,24.640625,3155.5654296875,39.22862434387205,1145.97497558594,408.805755615234,114.3116340637205,124.77375411987299,0.387229561805725,199.466659545898,45.3958320617676,312.38264465332054,2099.625,47.58124923706055,20.28125,0.3856945,-67.5,1,"[1, 2, 3]"
41,Bonyunia excelsa,Bonyunia excelsa,77104860-1,77104860-1,Species,24.73400020599365,60.6378746032715,25.3555002212524,23.83562469482425,2954.1968994140652,29.765625,1041.6533813476549,468.2774963378905,186.9764556884765,177.5587463378905,0.7055297046899796,186.88541412353499,49.0104179382324,274.03125,1875.5,44.625,21.25,0.3551835,-72.51861099999999,1,[1]
42,Bonyunia magnifica,Bonyunia magnifica,77104861-1,77104861-1,Species,25.9699993133545,40.0182495117188,26.5909996032715,25.650749206543,2532.27075195312,43.4025001525879,966.970520019531,270.645751953125,42.3351783752441,45.2724990844727,0.063974641263485,187.125,40.8125,221.14582824707,1496.75,45.125,24.3125,-4.346689,-60.92273,1,[1]
43,Bonyunia minor,Bonyunia minor,34789-2,34789-2,Species,22.3862495422363,56.5027503967285,23.003999710083,21.6947498321533,2134.40942382812,56.3484992980957,1063.0498046875,188.879501342773,872.903076171875,855.857482910156,2.08523178100586,238.35417175293,51.4375,318.3125,2370.0,63.4375,24.8125,5.31666,-61.48,2,"[2, 1, 15, 3]"
44,Bonyunia nobilis,Bonyunia nobilis,77104862-1,77104862-1,Species,24.530625343322747,61.644374847412095,25.163125038147,23.6209993362427,2937.33422851562,30.5012493133545,1059.38171386719,451.680755615234,220.168975830078,217.919998168945,1.009900063276293,194.6875,49.2916679382324,283.791656494141,1909.25,44.75,21.9375,0.498611,-72.6294445,1,[1]
45,Bonyunia pulchra,Bonyunia pulchra,77104863-1,77104863-1,Species,23.6142501831055,48.1847496032715,24.2789993286133,22.4995002746582,2113.201232910155,45.1323757171631,841.430755615234,208.7381286621095,663.477844238281,687.280029296875,7.223876953125,261.895843505859,50.9375,469.625,1310.75,68.9375,24.5625,-9.331949999999999,-75.2652775,1,[1]
46,Bonyunia spectabilis,Bonyunia spectabilis,77104864-1,77104864-1,Species,21.2164993286133,54.6710014343262,21.894250869751,20.5365009307861,2331.08837890625,42.296501159668,968.143737792969,348.254486083984,886.545715332031,917.127502441406,6.52344369888306,226.83332824707,48.25,328.3125,1933.5,57.9375,24.25,5.25,-60.58,2,[2]
47,Bonyunia superba,Bonyunia superba,545664-1,545664-1,Species,21.2164993286133,54.6710014343262,21.894250869751,20.5365009307861,2331.08837890625,45.0144996643066,1093.8251953125,348.254486083984,886.545715332031,917.127502441406,6.52344369888306,226.83332824707,51.0416679382324,328.3125,1933.5,57.9375,24.25,5.3,-62.21,2,"[2, 15]"
48,Bonyunia venusta,Bonyunia venusta,77104865-1,77104865-1,Species,26.2802505493164,52.1917495727539,27.0647506713867,25.8234996795654,2384.80151367188,40.7637481689453,871.359252929688,284.65576171875,85.1052627563477,78.0400009155273,0.635768234729767,161.564102172852,42.1777763366699,198.051284790039,1759.75,47.5999984741211,22.3125,-2.883333,-59.966667,1,[1]
49,Gardneria angustifolia,Gardneria angustifolia,546332-1,546332-1,Species,12.1692500114441,479.56962585449196,17.53362464904785,5.21437501907349,1579.14147949219,74.2044982910156,771.635498046875,75.6708755493164,2833.82275390625,2628.8162841796848,10.4408345222473,425.36457824707054,58.8125,473.0,1403.25,69.5,26.28125,27.095,98.7556535,12,"[12, 29, 23, 11, 2]"
50,Gardneria lanceolata,Gardneria lanceolata,546339-1,546339-1,Species,14.7840003967285,730.641723632812,23.7789993286133,4.94250011444092,1690.51623535156,60.9457511901855,788.991760253906,119.236503601074,869.842102050781,875.672485351562,4.89550495147705,308.11528015136696,58.3125,309.991668701172,1116.75,60.9375,24.3125,29.99,109.484961,14,"[14, 11]"
51,Gardneria multiflora,Gardneria multiflora,546341-1,546341-1,Species,17.271875381469698,657.474761962891,26.307749748229952,8.802624702453615,1897.71087646484,49.988624572753906,869.1177368164065,201.852996826172,300.75761413574196,276.015014648438,3.98933362960815,283.185180664062,54.0666656494141,320.200012207031,1040.5,62.53125,25.0,25.593837999999998,117.74377150000001,14,"[14, 15, 0, 11]"
52,Gardneria nutans,Gardneria nutans,546343-1,546343-1,Species,16.3812503814697,660.101989746094,24.9694995880127,8.37174987792969,2333.5615234375,42.3730010986328,886.588012695312,238.718505859375,81.9972305297852,109.269996643066,2.29129409790039,266.619049072266,52.8518524169922,416.333343505859,1290.75,67.5714263916016,25.8125,33.499214,133.466149,14,"[14, 0, 1, 11, 2, 15, 12]"
53,Gardneria ovata,Gardneria ovata,546344-1,546344-1,Species,23.611499786377,165.56575012207,25.2905006408691,19.2647495269775,2213.29907226562,73.2710037231445,994.773010253906,58.3447494506836,588.772827148438,580.64501953125,3.13125944137573,225.58332824707,55.8541679382324,290.5,6023.75,61.5,24.625,15.438889,98.590833,3,"[11, 2, 3, 12]"
54,Geniostoma biseriale,Geniostoma biseriale,546370-1,546370-1,Species,24.3780002593994,37.0437507629395,24.8237495422363,23.8622493743896,4566.2138671875,36.7962493896484,1719.66149902344,617.908264160156,320.842102050781,387.674987792969,5.57671022415161,408.5,54.3333320617676,753.309509277344,1245.0,76.2857131958008,26.3125,-13.9289,-171.74611,1,[1]
55,Geniostoma celastrineum,Geniostoma celastrineum,546377-1,546377-1,Species,21.6935005187988,226.302505493164,24.4482498168945,19.099250793457,1799.42419433594,52.9165000915527,816.561279296875,221.585494995117,162.066482543945,304.8125,5.3648509979248,239.488891601562,53.0444450378418,413.794860839844,1248.0,68.0714263916016,22.5625,-21.1825,165.34639,1,"[1, 3, 2, 0]"
56,Geniostoma clavatum,Geniostoma clavatum,546379-1,546379-1,Species,25.7180004119873,67.8509979248047,26.5752506256104,24.8072490692139,3264.8125,35.3530006408691,1210.44323730469,473.723236083984,90.5623245239258,57.4199981689453,2.03259897232056,,,,3314.0,,26.1666660308838,-16.7833,-151.46667,1,[1]
57,Geniostoma degeneri,Geniostoma degeneri,77183773-1,77183773-1,Species,18.85325050354,145.725250244141,20.6487503051758,17.0270004272461,3032.89184570312,21.6022491455078,965.002502441406,590.425476074219,376.011077880859,832.72998046875,9.18306922912598,377.155548095703,57.5416679382324,566.458312988281,3503.5,80.125,33.5625,22.09,-159.58,15,"[15, 1]"
58,Geniostoma fagraeoides,Geniostoma fagraeoides,546397-1,546397-1,Species,23.2777500152588,324.579010009766,27.1350002288818,18.9559993743896,1355.24475097656,28.1187496185303,414.894744873047,191.915496826172,1.30747926235199,3.43249988555908,0.209919065237045,,60.6666679382324,527.333312988281,5216.0,61.0,34.25,26.658812,142.158279,0,[0]
59,Geniostoma gaudichaudii,Geniostoma gaudichaudii,77209911-1,77209911-1,Species,22.6782493591309,133.968505859375,24.3055000305176,20.9624996185303,1457.52319335938,30.2747497558594,503.223236083984,247.658248901367,259.880889892578,240.897506713867,3.6416757106781,296.0,58.1111106872559,505.166656494141,2784.5,61.0,34.0,21.6,-157.9,1,[1]
60,Geniostoma glaucescens,Geniostoma glaucescens,546407-1,546407-1,Species,21.5902500152588,215.035751342773,24.4747505187988,18.4190006256104,2325.04833984375,52.7017517089844,1055.1982421875,241.180755615234,253.204986572266,323.942504882812,5.64828300476074,269.166656494141,52.9555549621582,520.555541992188,1217.5,78.6666641235352,22.875,-20.6,164.78361,1,"[1, 14, 0]"
61,Geniostoma hedyosmifolium,Geniostoma hedyosmifolium,77183885-1,77183885-1,Species,19.80025005340575,122.685874938965,21.18987560272215,18.3908748626709,2342.6767578125,27.175500869751,735.064514160156,426.273498535156,1043.8974609375,645.7174835205075,6.17194080352783,382.5,56.925693511962905,530.25,2980.875,77.0,31.21875,19.566650000000003,-155.5,15,"[3, 1, 15]"
62,Geniostoma helleri,Geniostoma helleri,77183962-1,77183962-1,Species,18.85325050354,145.725250244141,20.6487503051758,17.0270004272461,3032.89184570312,21.6022491455078,965.002502441406,590.425476074219,376.011077880859,832.72998046875,9.18306922912598,416.555541992188,56.2666664123535,617.799987792969,4626.66650390625,81.4000015258789,33.25,22.1102,-159.619997,15,"[15, 3, 1]"
63,Geniostoma hirtellum,Geniostoma hirtellum,77184210-1,77184210-1,Species,22.0867500305176,131.93049621582,23.4764995574951,20.6469993591309,2011.5625,30.2747497558594,658.110473632812,360.855499267578,459.947357177734,358.182495117188,7.08210897445679,377.155548095703,57.5416679382324,531.6875,3635.75,77.0,31.5625,21.16,-156.883,1,"[15, 3, 1]"
64,Geniostoma huttonii,Geniostoma huttonii,970839-1,970839-1,Species,19.5044994354248,209.776000976562,22.3145008087158,16.9360008239746,1593.53405761719,17.4939994812012,504.795989990234,340.434753417969,1.15512466430664,4.09000015258789,0.286062240600586,,,,,,,-31.563115500000002,159.089594,0,[0]
65,Geniostoma hymenopodum,Geniostoma hymenopodum,77183878-1,77183878-1,Species,23.7287502288818,113.81600189209,25.1477508544922,22.2987499237061,768.934753417969,53.6549987792969,330.783264160156,85.3022537231445,109.972297668457,60.6049995422363,1.8518226146698,379.388885498047,55.2000007629395,767.833312988281,3564.75,83.1999969482422,28.1875,21.3214,-157.736,0,[0]
66,Geniostoma imbricatum,Geniostoma imbricatum,77154426-1,77154426-1,Species,21.17125034332275,215.44837188720697,23.798749923706097,18.3971252441406,2267.70922851562,43.9485015869141,900.532775878906,333.734497070312,527.002746582031,277.096252441406,5.556973218917845,266.589752197266,53.1555557250977,494.769226074219,961.25,75.9166641235352,24.125,-21.971664500000003,166.534605,1,"[14, 1]"
67,Geniostoma leenhoutsii,Geniostoma leenhoutsii,546423-1,546423-1,Species,24.3465003967285,67.0297470092773,25.0242500305176,23.3759994506836,6457.92333984375,15.3152503967285,1960.13427734375,1349.86975097656,407.961212158203,460.332489013672,5.41666460037231,420.916656494141,52.5833320617676,1338.75,1635.0,68.8125,27.875,-5.813111,142.309889,1,[1]
68,Geniostoma lorencianum,Geniostoma lorencianum,77184257-1,77184257-1,Species,18.85325050354,145.725250244141,20.6487503051758,17.0270004272461,3032.89184570312,21.6022491455078,965.002502441406,590.425476074219,325.736846923828,832.72998046875,9.18306922912598,377.155548095703,57.5416679382324,566.458312988281,3503.5,80.125,33.5625,22.08,-159.6,15,"[15, 3]"
69,Geniostoma lydgatei,Geniostoma lydgatei,77184188-1,77184188-1,Species,21.5594997406006,134.29475402832,23.1912498474121,19.847749710083,2323.85107421875,21.9037494659424,711.994262695312,447.154998779297,376.011077880859,331.545013427734,4.51497507095337,416.555541992188,56.2666664123535,566.458312988281,3503.5,80.125,33.5625,22.1076,-159.5,1,"[1, 15]"
70,Geniostoma novae-caledoniae,Geniostoma novae-caledoniae,546439-1,546439-1,Species,21.1182498931885,237.737503051758,24.0699996948242,17.9475002288818,1935.69555664062,51.9720001220703,885.607482910156,224.973251342773,155.132965087891,379.334991455078,5.02519702911377,240.972229003906,53.0416679382324,412.604156494141,1205.66662597656,70.5,23.5,-21.45,165.56306,1,[1]
71,Geniostoma petiolosum,Geniostoma petiolosum,546449-1,546449-1,Species,19.5044994354248,209.776000976562,22.3145008087158,16.9360008239746,1593.53405761719,17.4939994812012,504.795989990234,340.434753417969,1.15512466430664,4.09000015258789,0.286062240600586,,,,,,,-31.5564,159.086397,0,[0]
72,Geniostoma pumilum,Geniostoma pumilum,77183839-1,77183839-1,Species,18.85325050354,145.725250244141,20.6487503051758,17.0270004272461,3032.89184570312,21.6022491455078,965.002502441406,590.425476074219,459.947357177734,832.72998046875,9.18306922912598,353.527770996094,54.8205146789551,725.717956542969,3503.5,86.8461532592773,33.5625,22.0834,-159.502,15,[15]
73,Geniostoma randianum,Geniostoma randianum,546457-1,546457-1,Species,13.34587526321415,48.9172515869141,13.896999835968,12.5394997596741,3317.54736328125,34.37600135803225,1211.36694335938,450.5690002441405,2593.80322265625,2298.41870117187,10.882694244384801,497.5,52.34375,736.625,404.125,117.375,29.5625,-9.0416665,147.67083350000001,15,"[15, 1]"
74,Geniostoma trichostylum,Geniostoma trichostylum,546476-1,546476-1,Species,23.7169990539551,39.7822494506836,24.1107501983643,23.1277503967285,3711.02075195312,10.5030002593994,1025.08251953125,833.788757324219,427.060943603516,451.029998779297,6.17545461654663,464.155548095703,52.7111129760742,1682.62219238281,1296.5,80.7333297729492,29.4375,-6.416667,155.666667,1,[1]
75,Geniostoma triflorum,Geniostoma triflorum,77184007-1,77184007-1,Species,22.0867500305176,113.375503540039,23.4764995574951,20.6469993591309,881.210754394531,58.6187515258789,383.382263183594,79.6482467651367,140.675903320312,358.182495117188,7.08210897445679,388.166656494141,57.6666679382324,450.0,3635.75,77.0,31.3125,21.0928,-156.8725,3,[3]
76,Geniostoma venosum,Geniostoma venosum,77184074-1,77184074-1,Species,18.8077507019043,113.4813766479495,20.1967506408691,17.3612499237061,2588.5277099609348,23.200874328613303,804.1212463378905,479.6671295166015,841.4584274292005,800.222473144531,9.67578506469727,390.75,57.2888870239258,531.6875,2689.25,70.4000015258789,33.625,20.749525,-156.14600000000002,15,"[1, 15]"
77,Geniostoma vestitum,Geniostoma vestitum,546479-1,546479-1,Species,21.5902500152588,231.884994506836,24.4747505187988,18.4190006256104,1993.71374511719,53.0779991149902,912.052490234375,239.417007446289,253.204986572266,323.942504882812,5.3648509979248,241.95832824707,53.0444450378418,442.041656494141,1195.5,70.0,23.375,-21.18333,165.266667,1,"[1, 14, 0]"
78,Geniostoma waialealae,Geniostoma waialealae,77183699-1,77183699-1,Species,21.5594997406006,134.29475402832,23.1912498474121,19.847749710083,3032.89184570312,21.6022491455078,924.11572265625,590.425476074219,376.011077880859,331.545013427734,5.44764614105225,416.555541992188,56.2666664123535,617.799987792969,3503.5,81.4000015258789,33.5625,22.12,-159.559997,1,"[1, 15]"
79,Geniostoma waiolani,Geniostoma waiolani,77184146-1,77184146-1,Species,22.0867500305176,113.375503540039,23.4764995574951,20.6469993591309,881.210754394531,58.6187515258789,383.382263183594,79.6482467651367,140.675903320312,358.182495117188,7.08210897445679,388.166656494141,57.6666679382324,450.0,3635.75,77.0,31.3125,21.1167,-156.883,3,[3]
80,Geniostoma weinlandii,Geniostoma weinlandii,546482-1,546482-1,Species,24.8057498931885,67.9307479858398,25.2490005493164,23.8640003204346,3145.84985351562,14.168999671936,964.169494628906,617.984008789062,199.216064453125,313.304992675781,4.73629903793335,343.9375,52.8958320617676,679.833312988281,878.25,73.6875,28.9375,-6.58333,146.925,1,"[1, 15]"
81,Spigelia faveolata,Spigelia faveolata,330742-2,330742-2,Species,21.1827507019043,25.5382499694824,21.5387496948242,20.8850002288818,6080.97021484375,9.87125015258789,1759.83178710938,1430.11877441406,857.454284667969,988.64501953125,9.44143867492676,452.604156494141,50.2083320617676,1027.6875,2445.0,100.625,28.375,4.766667,-76.483333,1,"[1, 15]"
82,Logania albiflora,Logania albiflora,546584-1,546584-1,Species,15.4270000457764,396.162750244141,20.3729991912842,10.0825004577637,930.010498046875,23.8159999847412,314.582763671875,169.170745849609,337.950134277344,328.297485351562,2.44544506072998,208.75,53.5,360.5,1116.25,60.5999984741211,18.875,-33.704638,150.6289,15,"[15, 14, 6, 0, 7, 4, 11]"
83,Logania archeri,Logania archeri,984031-1,984031-1,Species,16.3427505493164,360.980255126953,20.8232498168945,11.6155004501343,409.222503662109,21.7255001068115,128.901504516602,81.3034973144531,235.260391235352,241.912506103516,0.228737220168114,141.02082824707,70.7083358764648,228.375,2919.75,41.625,14.4375,-33.1,122.4,7,[7]
84,Logania buxifolia,Logania buxifolia,546589-1,546589-1,Species,15.99762439727785,309.3443756103515,19.8584995269775,11.9590001106262,439.702758789062,30.5895004272461,147.801498413086,73.8262481689453,110.018005371094,154.7112503051755,0.631324529647827,96.6979141235352,67.0476226806641,199.45832824707,2160.75,45.3125,14.8125,-33.683333,120.0825965,7,"[7, 9, 5, 8, 0]"
85,Logania cordifolia,Logania cordifolia,546596-1,546596-1,Species,19.6452503204346,468.133239746094,25.0657501220703,13.1090002059937,751.908020019531,51.1662483215332,332.695739746094,83.3785018920898,497.545715332031,481.029998779297,1.4047429561615,143.8125,60.6666679382324,212.6875,593.25,37.8125,18.4375,-25.18,149.166667,14,"[6, 14]"
86,Logania crassifolia,Logania crassifolia,546597-1,546597-1,Species,15.8760004043579,204.550506591797,18.6725006103516,13.0687503814697,513.793029785156,59.2949981689453,241.371505737305,49.8470001220703,4.18836545944214,8.14000034332275,0.292871683835983,172.0,71.5555572509766,529.851867675781,2819.0,57.4166679382324,14.875,-35.271905000000004,136.9661405,9,"[9, 0, 7, 8]"
87,Logania diffusa,Logania diffusa,906553-1,906553-1,Species,20.1655006408691,414.318237304688,24.8850002288818,14.2430000305176,711.642272949219,50.1042518615723,302.6142578125,83.1647491455078,513.531860351562,541.407470703125,4.03211402893066,146.3125,61.9375,250.625,866.75,44.0,19.0,-23.741667,149.109429,14,"[14, 6]"
88,Logania fasciculata,Logania fasciculata,546602-1,546602-1,Species,16.4453754425049,236.27424621582,19.3836250305176,13.2910003662109,578.500854492187,43.6561260223389,227.42063140869152,75.754753112793,15.03878116607665,20.1924991607666,0.433054089546204,143.800003051758,63.629631042480455,312.625,2119.25,49.125,15.5625,-33.9168745,121.525,7,"[7, 9, 0, 5]"
89,Logania granitica,Logania granitica,77085016-1,77085016-1,Species,9.27025032043457,493.712493896484,15.6347503662109,2.86275005340576,881.890014648438,14.3035001754761,249.207244873047,173.631500244141,1181.7451171875,1196.55505371094,5.61605358123779,215.533340454102,55.8222236633301,374.133331298828,396.75,59.4000015258789,19.5,-35.562496,148.97,15,[15]
90,Logania insularis,Logania insularis,546608-1,546608-1,Species,15.3924999237061,215.008499145508,18.3257503509521,12.808500289917,601.823486328125,62.1775016784668,289.291748046875,54.8027496337891,44.6398887634277,36.0499992370605,0.714567899703979,260.722229003906,61.5925941467285,641.296325683594,2121.25,59.4444427490234,19.0,-35.765414,136.59737,9,[9]
91,Logania linifolia,Logania linifolia,546611-1,546611-1,Species,15.4302501678467,408.848510742188,20.1222496032715,10.2122497558594,463.943756103516,40.4077491760254,180.60725402832,54.0945014953613,79.2714691162109,77.745002746582,0.279049664735794,157.91667175293,73.0416641235352,261.625,3246.25,37.375,16.4166660308838,-35.77969,140.08149,7,"[7, 9, 15, 5, 8, 0]"
92,Logania litoralis,Logania litoralis,984037-1,984037-1,Species,20.6007499694824,284.805511474609,24.3102493286133,17.3487491607666,370.70849609375,92.5187530517578,220.858245849609,16.1762504577637,38.4570655822754,17.2425003051758,0.39029261469841,133.703704833984,68.9555549621582,174.30000305175798,2034.5,47.75,12.75,-27.716667,114.133333,0,"[0, 4, 6, 8]"
93,Logania micrantha,Logania micrantha,546613-1,546613-1,Species,15.73187494277955,349.058258056641,19.8584995269775,10.8329997062683,472.91950988769497,35.399625778198256,170.598876953125,69.6087493896484,244.585868835449,263.27999877929653,0.6050614416599275,104.239585876465,65.2083320617676,204.93154144287098,2216.375,48.5625,14.3125,-33.693360999999996,119.983333,7,"[9, 7, 8, 4]"
94,Logania minor,Logania minor,984033-1,984033-1,Species,15.9537496566772,292.47900390625,19.9845008850098,12.1564998626709,442.183990478516,51.28012466430665,194.125747680664,50.2265014648438,50.05401611328125,50.5074996948242,0.252071917057037,150.805557250977,75.4002990722656,342.388885498047,2613.0,43.461540222168,15.02083349227905,-35.066036,137.182435,9,"[8, 9, 0, 7]"
95,Logania nanophylla,Logania nanophylla,984032-1,984032-1,Species,17.37112522125245,444.46025085449196,22.874250411987347,11.50362491607665,345.8062438964845,17.71024990081785,104.42337417602499,69.69025039672849,330.080322265625,322.0274963378905,0.4286237955093385,91.5208358764648,74.5833358764648,331.375,2081.25,47.0,14.0,-32.0,122.35,5,"[5, 7]"
96,Logania ovata,Logania ovata,546617-1,546617-1,Species,15.4425001144409,245.651245117188,18.5685005187988,11.9792499542236,533.927490234375,56.1124992370605,248.176498413086,54.0945014953613,45.63296508789065,53.9599990844727,0.539584159851074,203.899993896484,66.0,417.333343505859,2474.75,49.8125,15.8125,-35.709410000000005,137.06967,9,"[9, 8, 0, 7, 5, 4, 15]"
97,Logania perryana,Logania perryana,984035-1,984035-1,Species,17.4759998321533,429.705505371094,22.8544998168945,11.7534999847412,327.177001953125,14.7030000686646,95.7602462768555,69.1587524414062,284.628814697266,278.447509765625,0.463158518075943,101.179489135742,75.8205108642578,283.809509277344,2377.5,40.2857131958008,15.6875,-32.15,121.773056,5,"[5, 7, 8]"
98,Logania recurva,Logania recurva,546620-1,546620-1,Species,14.3112497329712,386.828002929688,19.0655002593994,9.16600036621094,753.271240234375,53.601749420166,328.671508789062,75.5924987792969,230.257614135742,366.897491455078,2.24532079696655,184.41667175293,59.1111106872559,490.583343505859,3146.0,62.4285697937012,17.4375,-35.02482,138.712222,9,"[9, 7]"
99,Logania saxatilis,Logania saxatilis,984036-1,984036-1,Species,15.3232498168945,424.264251708984,20.7927494049072,9.41149997711182,646.913513183594,49.3127517700195,274.403747558594,67.0812530517578,333.268707275391,366.897491455078,2.1822521686554,145.39582824707,62.0666656494141,379.622222900391,2893.5,57.2000007629395,17.25,-34.82952,138.5861,7,"[7, 9, 5, 4]"
100,Logania scabrella,Logania scabrella,984034-1,984034-1,Species,14.7604999542236,235.610000610352,17.9479999542236,11.9300003051758,693.735229492188,62.9637489318848,334.611511230469,63.1155014038086,86.6731338500977,123.817497253418,0.937145888805389,272.0625,58.3333320617676,580.333312988281,3270.75,67.0625,18.375,-35.90675,136.875,9,[9]
101,Logania stenophylla,Logania stenophylla,546624-1,546624-1,Species,16.20750045776365,323.498992919922,20.2668743133545,11.8762502670288,413.065246582031,23.5345001220703,130.754257202148,75.44037628173831,180.25068664550798,166.217498779297,0.225010395050049,105.770835876465,69.15625,196.75,2441.5,41.75,14.78125,-33.4293055,121.927778,7,"[7, 5, 9]"
102,Logania sylvicola,Logania sylvicola,77108596-1,77108596-1,Species,15.3275003433228,415.170257568359,20.6987495422363,10.2987499237061,598.116027832031,68.1497497558594,298.610504150391,44.4835014343262,278.047088623047,301.429992675781,0.905981421470642,140.04167175293,62.125,283.020843505859,2477.25,54.5625,13.5,-33.5,116.6,9,[9]
103,Logania vaginalis,Logania vaginalis,546627-1,546627-1,Species,16.1879997253418,253.210998535156,19.3626251220703,13.2953748703003,912.243255615234,73.44587326049805,452.394256591797,51.35625076293945,22.605263710022,39.76499938964845,0.695425093173981,178.0,62.7272720336914,445.60556030273403,2651.5,69.5,15.125,-33.983333,115.8042325,9,"[7, 9, 8, 0]"
104,Mitrasacme aggregata,Mitrasacme aggregata,990993-1,990993-1,Species,26.86174964904785,151.392242431641,28.7934999465942,24.7678747177124,1545.8241577148451,107.9602508544925,1018.054748535155,4.87375020980835,49.3365650177002,46.8899993896484,0.5676572620868685,136.703704833984,59.7708320617676,192.9375,4235.5,29.125,16.375,-12.547229,132.7510785,3,[3]
105,Mitrasacme albomarginata,Mitrasacme albomarginata,546631-1,546631-1,Species,26.3938751220703,71.62762451171875,27.19387435913085,25.33387470245365,2022.1013793945299,64.71500015258785,948.374755859375,150.179496765137,11.542936563491805,18.762500047683716,0.11619006842374821,186.22917175293,57.6076374053955,381.27430725097645,4994.75,50.8958339691162,25.59375,-8.566456500000001,140.803065,3,"[2, 3]"
106,Mitrasacme alsinoides,Mitrasacme alsinoides,546632-1,546632-1,Species,18.570499420166,374.22737121582054,22.8012504577637,13.2239999771118,1187.34252929688,37.3422508239746,433.19474792480446,154.474754333496,58.4265937805176,70.2400016784668,0.964934825897217,201.97917175293,54.013889312744155,307.75,1817.75,56.4375,19.5,-29.7708075,152.4674425,14,"[14, 15, 0, 3, 6]"
107,Mitrasacme ambigua,Mitrasacme ambigua,546633-1,546633-1,Species,26.2985000610352,253.106506347656,28.9584999084473,22.6162490844727,1169.87194824219,111.159248352051,767.703002929688,5.95475006103516,195.764541625977,192.592498779297,0.889429211616516,81.4375,63.1041679382324,112.958335876465,2686.5,25.3125,15.8125,-14.95,132.28067,3,"[3, 6]"
108,Mitrasacme brachystemonea,Mitrasacme brachystemonea,546638-1,546638-1,Species,25.201000213623,199.319244384766,27.21312522888185,22.682250022888198,1109.408203125,114.175750732422,714.2725219726565,16.7514991760254,146.204986572266,151.884994506836,0.707324683666229,76.6111145019531,60.9583320617676,102.577774047852,4341.375,22.65625,14.8125,-15.356043,144.583333,3,"[6, 3, 11, 0]"
109,Mitrasacme clarksonii,Mitrasacme clarksonii,990991-1,990991-1,Species,26.005500793457,108.018753051758,27.1490001678467,24.4594993591309,1848.39453125,94.5917510986328,1107.94995117188,44.0987510681152,4.95567846298218,2.32750010490417,0.0990006327629089,127.484848022461,54.9166679382324,273.128204345703,7601.0,37.8333320617676,24.875,-10.983333,142.6693105,0,"[0, 3]"
110,Mitrasacme connata,Mitrasacme connata,546646-1,546646-1,Species,26.7334995269775,239.34700012207,29.1082496643066,23.2784996032715,1325.24047851562,109.81224822998,880.946228027344,5.74774980545044,102.28254699707,107.957496643066,0.630078196525574,88.9895820617676,61.8125,117.895835876465,3449.75,27.625,16.0625,-14.09781,132.431809,3,"[11, 3, 4, 6, 2, 0]"
111,Mitrasacme elata,Mitrasacme elata,546654-1,546654-1,Species,26.7512493133545,131.171249389648,28.1100006103516,24.7472496032715,1495.52795410156,99.8844985961914,926.596252441406,10.7932500839233,22.8088645935059,30.3400001525879,0.488259524106979,138.357147216797,58.2291679382324,200.487182617188,4618.5,30.9230766296387,18.125,-11.697246,132.55157,3,"[3, 1, 0, 2]"
112,Mitrasacme epigaea,Mitrasacme epigaea,990987-1,990987-1,Species,27.5807495117188,272.475128173828,30.7094993591309,23.3309993743896,919.315887451172,113.1781272888185,622.919006347656,5.06949996948242,130.240997314453,142.317504882812,1.14819288253784,84.9583320617676,65.9583358764648,97.2291679382324,2357.375,27.28125,15.90625,-15.781955,128.3844515,6,"[3, 6]"
113,Mitrasacme exserta,Mitrasacme exserta,546656-1,546656-1,Species,26.9447498321533,239.966995239258,29.2320003509521,23.8647499084473,1374.86877441406,110.634002685547,883.913269042969,5.68275022506714,71.0969543457031,81.3775024414062,0.583642661571503,90.7708320617676,63.3125,120.155555725098,3568.5,27.75,16.125,-14.088056,130.71786,3,"[3, 6, 4]"
114,Mitrasacme floribunda,Mitrasacme floribunda,990989-1,990989-1,Species,26.9392509460449,170.967742919922,29.1082496643066,24.419750213623,1594.8974609375,109.25325012207,1041.63305664062,4.55100011825562,134.637115478516,135.615005493164,1.65400898456573,151.3125,59.8125,191.622222900391,3753.25,29.875,16.0,-12.865444,132.852152,3,[3]
115,Mitrasacme foliosa,Mitrasacme foliosa,546657-1,546657-1,Species,26.0652503967285,209.082244873047,28.236499786377,22.75950050354,1388.44250488281,111.846000671387,896.992004394531,7.61924982070923,365.958435058594,336.420013427734,0.971016764640808,89.3333358764648,64.3958358764648,130.75,3565.25,28.875,15.6875,-15.566667,125.835594,3,"[3, 6]"
116,Mitrasacme galbina,Mitrasacme galbina,990997-1,990997-1,Species,25.8474998474121,254.63824462890648,28.636999130249,22.2197494506836,1105.41479492188,113.9833755493165,737.161987304688,6.67374992370605,374.875335693359,376.802490234375,1.06683099269867,77.375,64.59375,115.625,2970.5,28.5,16.4375,-15.933333,125.83559249999999,3,"[3, 6, 9]"
117,Mitrasacme geniculosa,Mitrasacme geniculosa,990995-1,990995-1,Species,26.9112491607666,172.905746459961,29.4020004272461,23.8857498168945,1478.30944824219,110.008003234863,955.982238769531,4.91125011444092,132.490310668945,135.615005493164,1.45533061027527,120.0,59.8125,156.875,4051.75,28.25,15.75,-12.947226,132.82,3,[3]
118,Mitrasacme gentianea,Mitrasacme gentianea,546659-1,546659-1,Species,26.9108743667603,190.115493774414,28.967250823974602,24.013625144958503,1443.7694702148451,107.6516227722165,935.6827392578125,5.47149991989136,136.199447631836,111.985000610352,0.825704604387283,110.14583206176749,62.3645820617676,155.29166412353499,3713.875,30.6875,16.25,-14.1154,130.743056,3,"[3, 6]"
119,Mitrasacme glaucescens,Mitrasacme glaucescens,990981-1,990981-1,Species,26.6257495880127,191.674255371094,29.0365009307861,23.4967498779297,1436.82971191406,109.741249084473,931.488525390625,5.07625007629395,175.634353637695,159.0625,1.06056380271912,115.9375,60.8958320617676,143.6875,3753.25,28.2666664123535,15.75,-13.4312,132.605865,3,"[3, 6]"
120,Mitrasacme graminea,Mitrasacme graminea,990978-1,990978-1,Species,26.52037525177005,216.994750976562,28.5622501373291,23.3322505950928,1380.58569335938,112.4956245422365,896.992004394531,7.93324995040894,244.518005371094,231.322494506836,1.49490332603455,107.083335876465,63.8333320617676,130.79167175293,3436.25,26.692307472229,16.0625,-15.031970000000001,125.81804149999999,3,[3]
121,Mitrasacme hispida,Mitrasacme hispida,546661-1,546661-1,Species,26.90387439727785,245.585754394531,28.933500289917,23.650749206543,850.721984863281,122.53825378418,625.252990722656,4.94087505340576,50.1274223327637,57.4625015258789,0.5412170439958575,76.4285736083984,66.6428604125977,118.072914123535,3491.5,27.8571434020996,16.5,-16.581986,124.7739225,6,"[6, 3]"
122,Mitrasacme inornata,Mitrasacme inornata,990992-1,990992-1,Species,26.8159999847412,130.69450378418,28.1322498321533,24.7887496948242,1458.23352050781,104.897750854492,901.623474121094,8.11124992370605,15.2714681625366,16.7350006103516,0.341368496417999,141.633331298828,57.9444427490234,233.722229003906,4688.5,25.769229888916,17.25,-11.55755,132.55174,3,[3]
123,Mitrasacme katjarranka,Mitrasacme katjarranka,77148781-1,77148781-1,Species,25.6077499389648,606.965515136719,32.2262496948242,16.9979991912842,359.559509277344,86.5942535400391,199.158004760742,19.0617504119873,395.506927490234,380.040008544922,0.333709329366684,36.5833320617676,76.7708358764648,96.5208358764648,3082.75,17.625,17.375,-23.4,125.7,4,[4]
124,Mitrasacme kenneallyi,Mitrasacme kenneallyi,990996-1,990996-1,Species,26.5652503967285,199.748992919922,28.636999130249,23.4772491455078,1236.21704101562,112.909248352051,853.2392578125,6.85774993896484,151.739608764648,171.604995727539,0.674024045467377,83.4166641235352,64.4375,121.416664123535,3647.25,25.4375,16.25,-14.816667,126.20105,3,"[3, 6]"
125,Mitrasacme laevis,Mitrasacme laevis,546664-1,546664-1,Species,26.8159999847412,151.392242431641,28.5314998626709,24.742000579834,1502.85705566406,106.739501953125,954.263977050781,5.8895001411438,31.6925201416016,33.7900009155273,0.514336705207825,124.604164123535,59.3125,177.79167175293,4496.75,28.6875,16.3125,-12.58093,132.718819,3,"[3, 6]"
126,Mitrasacme laricifolia,Mitrasacme laricifolia,546665-1,546665-1,Species,26.51312446594235,231.626007080078,28.83024978637695,23.1102504730225,1191.72180175781,112.420249938965,817.145263671875,6.85774993896484,208.9265975952145,206.425003051758,0.8541157245635985,82.1666679382324,63.533332824707,120.155555725098,3272.75,25.4375,15.9375,-15.0102285,126.818926,3,"[3, 6, 0, 9]"
127,Mitrasacme latiflora,Mitrasacme latiflora,546666-1,546666-1,Species,26.5702495574951,216.603744506836,28.9987506866455,23.25137424468995,1393.17944335938,108.594497680664,917.497985839844,5.59849977493286,198.387817382812,205.5787506103515,0.607574582099915,83.7291641235352,61.2708339691162,110.0625,3610.875,27.2666664123535,15.8125,-13.82548,132.20447000000001,3,[3]
128,Mitrasacme laxiceps,Mitrasacme laxiceps,990999-1,990999-1,Species,26.4615001678467,207.70524597168,28.5995006561279,23.1102504730225,1242.86047363281,110.694747924805,822.1259765625,7.83825016021729,294.509704589844,266.382507324219,0.770497858524323,85.5,63.3854179382324,123.416664123535,3611.5,24.0625,16.25,-14.95,126.2489,3,"[3, 6, 0]"
129,Mitrasacme lutea,Mitrasacme lutea,546669-1,546669-1,Species,26.704125404357903,280.481506347656,30.1879997253418,22.93175029754635,746.4877624511715,123.038497924805,548.8848876953125,7.41050004959106,55.1634330749512,71.4375,0.32032960653305054,60.8125,69.5208358764648,90.5,3629.625,27.5,17.1875,-17.8299175,124.384489,6,"[6, 3]"
130,Mitrasacme maritima,Mitrasacme maritima,990994-1,990994-1,Species,25.6660003662109,114.203750610352,26.8857498168945,24.070499420166,1901.27600097656,90.7095031738281,1121.39001464844,58.4799995422363,30.5152359008789,38.2050018310547,0.486088931560516,98.2708358764648,55.7708320617676,168.66667175293,9296.5,33.6875,20.5625,-11.17,142.796944,3,[3]
131,Mitrasacme micrantha,Mitrasacme micrantha,546673-1,546673-1,Species,26.5777492523193,278.836242675781,29.8282508850098,22.4230003356934,1017.26226806641,112.03099822998,686.66650390625,5.69724988937378,167.71467590332,157.657501220703,0.698038280010223,74.3541641235352,65.2916641235352,90.5208358764648,2501.25,25.375,15.125,-15.497197,132.39051,3,"[4, 3, 6, 11]"
132,Mitrasacme multicaulis,Mitrasacme multicaulis,546675-1,546675-1,Species,26.4747505187988,190.3622512817385,28.69700050354,23.7248754501343,1393.17944335938,108.455253601074,903.1942443847655,6.52475023269653,49.6786689758301,56.0924987792969,0.510233283042908,91.6875,60.2083320617676,129.34375,4183.25,27.22708320617675,15.9375,-13.131933,133.981898,3,"[3, 6, 0]"
133,Mitrasacme neldneri,Mitrasacme neldneri,990990-1,990990-1,Species,27.0162506103516,178.522506713867,29.2660007476807,24.4155006408691,1332.82348632812,122.876747131348,964.163024902344,5.40175008773804,42.6786689758301,54.8450012207031,0.0979367569088936,57.7708320617676,61.5833320617676,98.3125,5241.5,21.5625,14.25,-14.775051000000001,142.173066,3,[3]
134,Mitrasacme nidulifera,Mitrasacme nidulifera,990984-1,990984-1,Species,26.8857498168945,250.680755615234,29.2377490997314,23.2530002593994,1169.87194824219,112.149002075195,788.808227539062,4.95275020599365,130.869812011719,130.580001831055,1.25143814086914,95.375,64.3125,130.79167175293,2655.25,25.4375,15.5625,-14.947227,129.792127,3,"[3, 6]"
135,Mitrasacme nummularia,Mitrasacme nummularia,546680-1,546680-1,Species,26.8159999847412,172.524749755859,28.732250213623,24.2262496948242,1504.15625,108.750747680664,977.108520507812,6.13000011444092,78.8531875610352,86.9400024414062,0.745353817939758,126.033332824707,60.0,178.222229003906,3797.5,29.875,16.75,-13.28876,131.03323,3,"[3, 6, 0, 4, 14, 11]"
136,Mitrasacme oasena,Mitrasacme oasena,990977-1,990977-1,Species,20.1025009155273,264.109741210938,23.3527507781982,15.6587495803833,1643.01794433594,73.1315002441406,876.669494628906,96.1687469482422,679.83935546875,646.715026855469,2.33911681175232,176.733337402344,57.0208320617676,240.85417175293,1947.75,53.9375,20.3125,-17.3833,145.455278,11,"[14, 11, 4, 3, 2, 6, 0]"
137,Mitrasacme paludosa,Mitrasacme paludosa,546681-1,546681-1,Species,19.56112480163575,343.878753662109,24.050874710083,14.2662496566772,1107.37854003906,37.25162506103515,378.6317443847655,146.8668746948245,131.203598022461,122.605003356934,0.967699199914932,177.15555572509749,55.4222221374512,303.0,1686.125,49.8125,18.1875,-28.0526925,151.503333,14,"[14, 6, 0, 15, 3, 1, 2, 11]"
138,Mitrasacme patens,Mitrasacme patens,990988-1,990988-1,Species,26.2997493743896,199.021255493164,28.5747509002686,22.7407493591309,1116.59924316406,114.654251098633,773.208740234375,9.89974975585938,71.6565093994141,69.7675018310547,0.303083121776581,71.1041641235352,60.5416679382324,102.645835876465,4426.5,22.4375,14.375,-15.24713,143.886389,3,"[3, 6, 0]"
139,Mitrasacme phascoides,Mitrasacme phascoides,546686-1,546686-1,Species,25.9104995727539,192.034873962402,28.01275062561035,23.18037509918215,1239.835266113285,113.523002624512,821.708770751953,11.6820001602173,85.01246643066405,89.94625091552734,0.509752482175827,77.21875,59.589582443237305,109.395835876465,3991.0,24.9375,14.3125,-15.081389,143.70431150000002,3,"[3, 11]"
140,Mitrasacme polymorpha,Mitrasacme polymorpha,546689-1,546689-1,Species,16.0764999389648,343.878753662109,20.3729991912842,11.4862499237061,1107.37854003906,20.5785007476807,339.768249511719,204.738494873047,164.817169189453,200.042495727539,2.06155276298523,206.800003051758,53.1333351135254,365.799987792969,957.25,62.1333351135254,18.3125,-34.238367,150.860319,15,"[14, 0, 15, 11, 6, 7, 3, 4]"
141,Mitrasacme prolifera,Mitrasacme prolifera,546690-1,546690-1,Species,22.7102508544922,303.534240722656,26.2080001831055,18.6692504882812,1459.71350097656,88.9635009765625,786.245971679688,74.2624969482422,63.5041542053223,52.5900001525879,0.789074957370758,160.622222900391,59.7708320617676,227.0,2236.75,41.597917556762695,19.375,-13.581921,139.503056,3,"[3, 14, 0, 11, 2, 6, 21, 22, 25]"
142,Mitrasacme retroloba,Mitrasacme retroloba,990983-1,990983-1,Species,26.5187492370605,197.229248046875,28.7269992828369,23.5047492980957,1439.44799804688,108.87174987793,931.369262695312,6.15000009536743,150.650970458984,171.580001831055,0.743039727210999,116.0,61.8333320617676,156.79167175293,3790.5,28.5625,15.9375,-13.92047,132.190784,3,"[3, 6]"
143,Mitrasacme scopata,Mitrasacme scopata,990985-1,990985-1,Species,24.9907493591309,232.4368743896485,27.733625411987298,21.552124977111802,1261.282104492185,113.4395027160645,856.944519042969,6.47737503051758,403.1454315185545,445.64625549316395,1.495261907577515,89.3333358764648,64.8333320617676,118.979164123535,3756.625,28.6875,15.6875,-16.019477000000002,125.3415545,3,[3]
144,Mitrasacme scrithicola,Mitrasacme scrithicola,990982-1,990982-1,Species,26.8262500762939,264.701995849609,29.3174991607666,22.8540000915527,1126.75500488281,112.420249938965,754.998474121094,5.10675001144409,166.412734985352,143.242492675781,1.06683099269867,83.4166641235352,63.8125,102.729164123535,2655.25,27.0625,15.9375,-15.051417,131.087406,3,"[3, 6, 0]"
145,Mitrasacme secedens,Mitrasacme secedens,990998-1,990998-1,Species,26.86549949646,173.630493164062,28.7269992828369,24.2490005493164,1334.79248046875,108.837997436523,881.525024414062,5.65075016021729,143.033233642578,146.857498168945,0.653542876243591,96.3125,61.8333320617676,138.08332824707,4135.0,27.8125,15.4375,-13.494825,130.911075,3,"[3, 6]"
146,Mitrasacme serpyllifolia,Mitrasacme serpyllifolia,546696-1,546696-1,Species,11.6277503967285,410.132263183594,17.1035003662109,5.87050008773804,972.712524414062,20.8854999542236,292.034484863281,189.646499633789,754.939086914062,757.092529296875,2.44249558448792,213.6875,52.5625,423.854156494141,717.5,68.4166641235352,20.25,-36.33,149.635439,15,"[15, 14, 27, 9, 16, 0]"
147,Mitrasacme squamigera,Mitrasacme squamigera,990980-1,990980-1,Species,26.4892501831055,244.091003417969,28.72749996185305,23.2164993286133,1234.24572753906,111.317253112793,770.183471679688,6.15000009536743,140.880889892578,144.6212539672855,0.553938031196594,75.6145820617676,62.25,103.19791793823251,2890.625,24.8125,15.59375,-14.1166445,135.60097,3,"[3, 6]"
148,Mitrasacme stellata,Mitrasacme stellata,546701-1,546701-1,Species,25.74049949646,166.343002319336,27.2490005493164,23.3232498168945,1649.29370117188,109.201248168945,1073.80151367188,15.7797498703003,58.9168968200684,56.6824989318848,0.583642661571503,108.104164123535,57.8541679382324,169.857147216797,4712.0,30.6875,17.0625,-13.666667,143.083333,3,"[3, 0, 2, 1, 6]"
149,Mitrasacme subvolubilis,Mitrasacme subvolubilis,546702-1,546702-1,Species,27.2712497711182,155.152755737305,28.9987506866455,24.7985000610352,1594.8974609375,106.061248779297,990.513244628906,5.68249988555908,32.6149597167969,33.7900009155273,0.413449168205261,110.9375,60.2820510864258,172.0,4014.0,30.6875,16.0625,-12.89724,131.03148,3,"[3, 6]"
150,Mitrasacme thedae,Mitrasacme thedae,77153352-1,77153352-1,Species,26.6720008850098,218.741744995117,29.2842502593994,23.519250869751,1326.4677734375,107.910499572754,864.141235351562,8.23349952697754,245.847640991211,231.322494506836,1.3249477148056,111.583335876465,63.3125,130.79167175293,3173.25,25.375,17.0,-14.8,126.5,3,[3]
151,Mitrasacme troglodytica,Mitrasacme troglodytica,990979-1,990979-1,Species,27.1660003662109,161.77099609375,29.1082496643066,24.7707500457764,1595.42919921875,109.741249084473,1048.93298339844,4.36875009536743,134.637115478516,86.9400024414062,1.65400898456573,152.8125,59.2291679382324,217.95832824707,3753.25,29.875,16.75,-12.797226,132.918823,3,[3]
152,Mitreola pedicellata,Mitreola pedicellata,546719-1,546719-1,Species,15.9224996566772,762.885498046875,25.6394996643066,5.49399995803833,1490.70495605469,61.3987503051758,674.898010253906,125.363998413086,567.634338378906,674.539978027344,7.05218410491943,250.642852783203,58.6458320617676,261.0,561.0,55.625,24.25,29.49,110.16,14,"[14, 11]"
153,Mitreola petiolata,Mitreola petiolata,546721-1,546721-1,Species,22.1452503204346,369.107757568359,27.0034999847412,17.151124954223647,1460.52221679688,47.1909999847412,591.874114990234,174.721755981445,85.8753433227539,89.8762512207031,0.424921065568924,277.958343505859,57.0,287.739593505859,1448.25,49.6428565979004,22.8125,26.551586,-84.90043600000001,14,"[3, 14, 4, 2, 0, 6, 11, 1, 15, 12]"
154,Mitreola reticulata,Mitreola reticulata,546723-1,546723-1,Species,20.6192493438721,409.715240478516,25.2177505493164,14.7957496643066,1823.97351074219,74.672248840332,899.131774902344,66.2484970092773,724.243774414062,716.304992675781,7.70579481124878,212.39582824707,55.5416679382324,259.604156494141,1842.0,59.3125,24.75,20.728889,104.895833,11,[11]
155,Mitreola sessilifolia,Mitreola sessilifolia,30219651-2,30219651-2,Species,19.8449993133545,590.214233398438,27.0537490844727,12.0202503204346,1470.71130371094,27.0530004501343,560.277862548828,276.55448913574196,19.6939058303833,20.40500068664555,0.1287672221660615,608.666687011719,52.1875,326.895843505859,1396.375,39.1666679382324,18.8125,30.399057999999997,-85.02625,14,"[14, 3, 2, 1]"
156,Mitreola sphaerocarpa,Mitreola sphaerocarpa,546726-1,546726-1,Species,22.4476251602173,25.3487491607666,22.8028745651245,22.1606254577637,4227.701049804685,17.2339992523193,1272.52111816406,829.576599121094,495.659271240234,734.5062561035155,8.45150423049929,354.5,49.875,1025.20834350586,1348.875,64.9375,27.15625,4.083333,114.9249835,1,[1]
157,Mitreola turgida,Mitreola turgida,546729-1,546729-1,Species,26.7674999237061,110.632873535156,27.838249206543,25.0861253738403,1550.628234863285,125.56349945068351,1153.32971191406,4.367249965667725,20.5152359008789,48.100002288818345,0.630606338381767,201.902381896973,59.17777824401855,267.166656494141,6690.375,41.892309188842745,15.5,-15.811666500000001,46.3916635,3,[3]
158,Neuburgia celebica,Neuburgia celebica,546785-1,546785-1,Species,25.89674949645995,55.4573745727539,26.46075057983395,24.96525001525875,2981.2760009765598,18.78887462615965,926.381774902344,553.4642639160155,75.0332412719727,33.641250610351605,0.846284747123718,332.205551147461,51.85069465637205,712.641052246094,2033.75,65.78125,28.0,-5.541667,143.6291665,1,"[1, 2, 0]"
159,Neuburgia kochii,Neuburgia kochii,546788-1,546788-1,Species,24.5237503051758,63.8050003051758,25.2112503051758,23.617000579834,3201.1591796875,23.523250579834,1202.18298339844,635.6051330566405,386.6675872802735,279.047485351562,4.33747911453247,356.020843505859,52.0625,567.708312988281,1345.75,71.625,28.1875,-6.75,146.75,1,[1]
160,Neuburgia macroloba,Neuburgia macroloba,546790-1,546790-1,Species,25.6177501678467,93.4195022583008,26.7514991760254,24.3922500610352,2419.03369140625,42.0457496643066,909.643249511719,299.562744140625,0.0,0.0,0.0,371.047607421875,50.9047622680664,707.952392578125,2652.625,72.8571395874023,28.6875,-16.79165,-179.9168335,1,[1]
161,Neuburgia moluccana,Neuburgia moluccana,546791-1,546791-1,Species,25.0944995880127,30.8225002288818,25.7632503509521,24.2345008850098,2805.8564453125,19.03125,953.731994628906,484.122985839844,71.243766784668,173.264999389648,2.95965099334717,259.444458007812,49.1111106872559,443.785705566406,1339.75,56.0666656494141,27.6875,-0.622454,127.542075,1,[1]
162,Neuburgia novocaledonica,Neuburgia novocaledonica,77061619-1,77061619-1,Species,21.4357490539551,237.634002685547,24.2075004577637,18.2842502593994,1667.86755371094,51.9720001220703,758.429016113281,222.670745849609,222.847640991211,323.942504882812,5.10929203033447,241.95832824707,53.0416679382324,413.794860839844,1129.5,72.1875,23.375,-21.57639,165.69389,1,"[1, 3]"
163,Neuburgia rumphiana,Neuburgia rumphiana,546793-1,546793-1,Species,25.7199993133545,22.0984992980957,25.9379997253418,25.3937492370605,2835.93969726562,21.349250793457,868.310485839844,570.7749938964845,232.7119140625,199.684997558594,3.97927021980286,244.600006103516,51.0416660308838,591.020812988281,1833.25,58.2916660308838,26.5625,-3.016667,141.2541665,1,[1]
164,Orianthera biloba,Orianthera biloba,77154367-1,77154367-1,Species,20.7859992980957,511.891754150391,27.0769996643066,14.3582496643066,313.422760009766,68.974250793457,161.822006225586,24.1730003356934,232.14404296875,229.862503051758,0.397158622741699,68.3958358764648,63.7708320617676,97.2291641235352,1647.25,27.6875,11.625,-27.633333,114.7,6,"[6, 8]"
165,Orianthera callosa,Orianthera callosa,77154368-1,77154368-1,Species,15.8532495498657,357.64649963378895,19.9548749923706,10.73487520217895,379.0108795166015,29.6124992370605,122.784252166748,70.65599822998044,310.522155761719,307.61750793456997,0.3807859122753145,70.84375,71.6888885498047,157.622222900391,2276.875,53.25,14.09375,-33.3628465,119.68158,7,"[7, 9]"
166,Orianthera campanulata,Orianthera campanulata,77154366-1,77154366-1,Species,15.99062490463255,317.123748779297,19.813500404357953,12.150249958038351,628.162231445312,58.526750564575195,301.053497314453,56.0237503051758,108.653739929199,146.120002746582,0.7801063060760495,126.666664123535,62.5999984741211,317.1875,2563.25,48.25,14.34375,-33.7973195,116.8829165,9,"[9, 7, 8]"
167,Orianthera centralis,Orianthera centralis,77154369-1,77154369-1,Species,21.9961242675781,605.7652587890625,29.1732501983643,13.4857501983643,322.087493896484,57.328498840332,136.111251831055,29.230749130249,626.3836669921875,635.452514648438,0.435800135135651,46.6041679382324,75.1041679382324,98.2291641235352,3243.75,18.25,11.875,-23.939453,131.3530135,4,[4]
168,Orianthera exilis,Orianthera exilis,77154370-1,77154370-1,Species,16.7387504577637,448.221496582031,22.7387504577637,10.4884996414185,355.221496582031,30.7017498016357,129.71549987793,59.8342514038086,405.814392089844,409.822509765625,0.506234109401703,69.3125,69.3541641235352,143.35417175293,2475.25,52.5625,14.0,-32.2,119.8,7,"[7, 5]"
169,Orianthera flaviflora,Orianthera flaviflora,77154371-1,77154371-1,Species,17.5902500152588,510.106750488281,24.2935009002686,10.8680000305176,342.665496826172,47.3532485961914,143.145751953125,45.8232498168945,328.639892578125,325.862487792969,0.559065401554108,61.7708320617676,64.8222198486328,122.104164123535,1923.0,35.3125,12.0,-31.633333,118.1,7,"[7, 9, 5, 6, 8, 4]"
170,Orianthera judithiana,Orianthera judithiana,77154372-1,77154372-1,Species,16.7747497558594,473.248260498047,22.7417507171631,10.7033748626709,355.884246826172,32.7560005187988,132.967742919922,57.4620018005371,347.900268554688,360.3487396240235,0.5082006454467776,71.6770820617676,71.0625,147.75,2233.125,46.9333343505859,13.4375,-32.416751500000004,119.68392750000001,7,"[7, 5, 4]"
171,Orianthera nuda,Orianthera nuda,77154373-1,77154373-1,Species,17.1049995422363,462.265991210938,22.7987499237061,11.2142496109009,283.283508300781,28.0082492828369,100.023498535156,46.6247482299805,127.739608764648,133.912506103516,0.355649679899216,82.4166641235352,80.75,179.45832824707,2914.0,31.5625,13.875,-33.22931,136.75046,5,"[7, 5, 4, 9]"
172,Orianthera pusilla,Orianthera pusilla,77154374-1,77154374-1,Species,16.4965000152588,351.107238769531,20.7037506103516,11.7407503128052,1036.84851074219,24.3780002593994,325.445739746094,178.510757446289,77.7008285522461,72.7825012207031,1.31570386886597,207.547622680664,52.6666679382324,365.799987792969,1142.5,61.25,18.75,-33.959433,150.635807,15,"[15, 0, 14]"
173,Orianthera spermacocea,Orianthera spermacocea,77154377-1,77154377-1,Species,19.19262504577635,455.020263671875,24.5659999847412,13.3844995498657,528.653991699219,81.193000793457,287.911254882812,32.0110015869141,146.5346221923825,165.347503662109,0.752733737230301,99.7083358764648,63.2291679382324,157.592361450195,3533.125,46.625,11.875,-30.160833500000003,115.25,8,"[8, 6, 0]"
174,Orianthera tortuosa,Orianthera tortuosa,77154378-1,77154378-1,Species,16.01862525939945,432.819763183594,21.341624259948752,10.5830001831055,353.593994140625,40.78412437438965,135.035247802734,53.252498626709,327.5180053710935,331.41874694824253,0.560095489025116,63.2291679382324,67.4791641235352,137.58332824707,2057.625,41.1875,12.75,-33.006469,118.85165,7,"[7, 9, 8, 5, 4]"
175,Orianthera wendyae,Orianthera wendyae,77154379-1,77154379-1,Species,16.2674999237061,356.749237060547,21.0400009155273,12.0649995803833,830.310607910156,78.32362365722659,437.91162109375,39.6175003051758,99.99446105957045,100.727500915527,1.03783988952637,166.15625,60.8854160308838,400.30207824707054,3192.625,69.5,14.09375,-33.55,115.75,8,"[8, 9]"
176,Phyllangium distylis,Phyllangium distylis,991005-1,991005-1,Species,13.7904996871948,348.247009277344,18.097749710083,9.52299976348877,683.168762207031,38.8504981994629,253.740249633789,93.8737487792969,94.7146835327148,109.352500915527,0.58361154794693,250.95832824707,60.7575759887695,569.166687011719,2129.5,66.25,18.625,-37.33333,141.80917,9,"[15, 9, 7, 0]"
177,Phyllangium divergens,Phyllangium divergens,991007-1,991007-1,Species,14.3549995422363,369.963989257812,19.0195007324219,10.05812501907345,595.855773925781,39.8390007019043,237.787506103516,70.9775009155273,143.213302612305,155.07625579834001,0.835839718580246,193.71110534668,62.875,441.818176269531,2648.0,54.9375,17.5,-36.055685,139.96079500000002,9,"[7, 9, 8, 15, 0, 5, 14, 6]"
178,Phyllangium palustre,Phyllangium palustre,991008-1,991008-1,Species,17.0826253890991,386.0050048828125,22.66337490081785,12.749499797821048,760.5072631835935,80.4456253051758,411.4678649902345,40.4333763122559,32.833794593811,57.89375114440921,0.5627065449953079,134.64582824707,61.1458320617676,398.875,2856.125,71.1875,12.9375,-32.650000000000006,115.85,8,[8]
179,Phyllangium paradoxum,Phyllangium paradoxum,991004-1,991004-1,Species,17.6852493286133,375.528015136719,22.784125328064,12.9602499008179,798.409729003906,80.5009994506836,423.384490966797,39.1597518920898,65.77423858642581,55.7675018310547,0.499253153800964,151.39582824707,62.4166679382324,392.6875,2801.5,61.6666679382324,13.5,-32.423144,115.89572,8,"[9, 8, 7, 5, 4, 0]"
180,Phyllangium sulcatum,Phyllangium sulcatum,991006-1,991006-1,Species,17.777250289917,568.197265625,24.5837497711182,11.277250289917,347.140991210938,32.3257484436035,128.650756835938,48.9630012512207,307.238220214844,314.225006103516,0.600840032100677,65.6190490722656,67.1666641235352,142.6875,1713.5,34.0,13.625,-31.695991,119.095658,7,"[4, 7, 5, 8, 9, 6, 0, 15, 14]"
181,Schizacme archeri,Schizacme archeri,991001-1,991001-1,Species,8.5930004119873,280.084014892578,12.2102499008179,5.03700017929077,1467.59130859375,25.1695003509521,478.550506591797,240.043746948242,668.925231933594,571.242492675781,6.12450885772705,589.291687011719,51.3125,1862.83337402344,101.75,125.9375,28.625,-42.666667,146.519095,15,"[16, 15, 29, 0]"
182,Schizacme helmsii,Schizacme helmsii,77154480-1,77154480-1,Species,11.1899995803833,305.319763183594,15.1044998168945,7.19950008392334,2972.0040283203152,13.268000125884999,838.786865234375,619.9076232910155,240.66482543945352,187.8125,3.71620011329651,550.25,49.6666679382324,1735.77783203125,657.9166564941405,128.0,32.5625,-42.213950499999996,171.45813900000002,15,[15]
183,Schizacme montana,Schizacme montana,991002-1,991002-1,Species,8.73425006866455,280.084014892578,12.3754997253418,5.24475002288818,1676.037780761715,25.1695003509521,582.748748779297,279.7678833007815,523.545715332031,571.242492675781,5.93301820755005,569.625,50.9375,1875.14587402344,116.5,125.714286804199,28.625,-42.750211,146.2667,15,"[15, 16, 0, 29, 27]"
184,Schizacme novae-zelandiae,Schizacme novae-zelandiae,77154483-1,77154483-1,Species,9.42412519454956,219.904495239258,12.3677501678467,6.81099987030029,3092.2733154296848,11.6723747253418,820.7148742675785,713.8487548828125,360.146820068359,260.3062591552735,9.18123245239258,871.177795410156,51.8333320617676,2044.44445800781,469.75,128.358329772949,32.0,-45.4832415,167.2212085,15,"[16, 15]"
185,Spigelia aceifolia,Spigelia aceifolia,242169-2,242169-2,Species,20.036125183105447,184.137496948242,21.901249885559103,17.333374977111852,1742.284851074215,89.5070037841797,1016.8066101074195,43.41750144958495,1007.7216186523456,1034.2737121582031,3.9589440822601345,187.41666412353499,50.8958339691162,276.05207824707054,2781.0,52.3125,22.125,-19.227221999999998,-43.539757,11,"[11, 3]"
186,Spigelia alabamensis,Spigelia alabamensis,60458075-2,60458075-2,Species,17.5909996032715,703.625244140625,26.3819999694824,8.22299957275391,1431.98522949219,14.7722501754761,415.735504150391,291.634002685547,150.105270385742,133.899993896484,0.723499000072479,139.33332824707,51.0625,214.5625,1311.5,39.875,21.8125,33.0581725,-87.035611,14,[14]
187,Spigelia alborubra,Spigelia alborubra,77197934-1,77197934-1,Species,22.9872493743896,160.587753295898,24.6122493743896,20.5872497558594,867.310974121094,40.1912498474121,312.238494873047,102.507751464844,634.055419921875,607.114990234375,2.99241995811462,183.04167175293,60.4583320617676,241.33332824707,3001.0,38.0,18.5625,-10.943889,-40.408333,3,"[3, 6]"
188,Spigelia amambaiensis,Spigelia amambaiensis,77062626-1,77062626-1,Species,22.2154998779297,215.646743774414,24.361499786377,19.07200050354,1670.45349121094,47.8527488708496,670.552001953125,155.560745239258,385.911346435547,602.474975585938,1.13010036945343,189.41667175293,57.6875,198.1875,1208.5,40.3125,16.25,-21.0667,-56.8333,3,[3]
189,Spigelia amazonica,Spigelia amazonica,60434593-2,60434593-2,Species,25.6340007781982,71.6377487182617,26.5612506866455,24.7744998931885,3315.93969726562,63.2254981994629,1444.83422851562,297.297241210938,97.9806060791016,98.6474990844727,0.387229561805725,215.9674606323245,49.2000007629395,277.722915649414,4312.75,49.4479160308838,19.5,4.916667,-67.716667,2,"[2, 1]"
190,Spigelia andersonii,Spigelia andersonii,324568-2,324568-2,Species,18.7609996795654,169.835006713867,20.4775009155273,16.2264995574951,1443.09545898438,87.0477523803711,803.935485839844,29.3642501831055,1218.55407714844,1287.21997070312,2.10108542442322,170.41667175293,51.4375,559.854187011719,4214.5,50.875,20.0625,-18.276667,-43.721667,12,[12]
191,Spigelia andina,Spigelia andina,330744-2,330744-2,Species,17.3374996185303,222.851257324219,19.6407508850098,14.2309999465942,1009.342102050784,80.5407485961914,535.630645751953,31.28437519073485,1602.12048339844,1661.6375122070299,5.59150505065918,212.16666412353499,60.3645839691162,300.44792175292946,1466.25,63.625,22.0625,-18.8937465,-64.166248,12,"[11, 12, 6, 3, 7]"
192,Spigelia anthelmia,Spigelia anthelmia,318920-2,318920-2,Species,26.1767501831055,116.121250152588,27.4512500762939,24.7682495117188,1423.05651855469,63.3720016479492,651.091979980469,71.83212661743165,87.8531875610352,92.4599990844727,0.579192161560059,214.08332824707,60.0833320617676,290.6416625976565,3582.5,47.5999984741211,22.3125,7.551695,-52.6418085,3,"[1, 3, 6, 2, 0, 14, 11, 15, 12, 29]"
193,Spigelia asperifolia,Spigelia asperifolia,546913-1,546913-1,Species,23.1180000305176,132.213256835938,24.230749130249,20.9755001068115,1548.41918945312,74.6467514038086,726.015991210938,42.0530014038086,760.747924804688,746.015014648438,1.03366196155548,132.9375,53.3333320617676,171.08332824707,3097.5,35.0,19.25,-17.961389,-51.2,3,[3]
194,Spigelia beyrichiana,Spigelia beyrichiana,546917-1,546917-1,Species,21.4305000305176,243.514251708984,24.0267505645752,18.01650047302245,2014.39221191406,43.1324996948242,811.3943786621095,260.950744628906,259.487548828125,308.741241455078,2.7612841129303,291.282043457031,50.1904754638672,449.28125,1527.25,66.4000015258789,22.90625,-24.038056,-47.380006,14,"[14, 2, 15, 3, 1, 0, 12]"
195,Spigelia blanchetiana,Spigelia blanchetiana,546919-1,546919-1,Species,20.4195003509521,180.584243774414,21.80274963378905,18.1280002593994,1493.75500488281,76.98675155639646,748.2210083007815,45.3320007324219,879.657867431641,904.916259765625,2.43025588989258,165.9880905151365,52.9657726287842,229.3493576049805,2595.125,48.625,20.375,-20.268333,-45.518889,11,"[11, 3, 12, 15]"
196,Spigelia brachystachya,Spigelia brachystachya,546920-1,546920-1,Species,22.3652496337891,151.900497436523,23.7082500457764,20.0912494659424,772.585754394531,52.3009986877441,304.652740478516,78.7052536010742,647.4072265625,789.057495117188,3.03322982788086,176.97917175293,60.5416679382324,229.5625,2916.5,40.0625,19.5625,-11.915556,-40.516667,3,"[6, 3, 1]"
197,Spigelia caaguazuensis,Spigelia caaguazuensis,242182-2,242182-2,Species,21.602624893188448,333.1111145019535,25.498999595642097,17.17849922180175,1861.78662109375,24.91237545013425,578.3441467285155,293.496871948242,288.21052551269554,286.091247558594,0.9854222536087041,190.08332824707,52.59375,213.02082824707,986.875,44.65625,20.8125,-25.4118055,-55.868469000000005,14,"[14, 3, 15]"
198,Spigelia carnosa,Spigelia carnosa,242183-2,242183-2,Species,18.6180000305176,149.128005981445,20.1981248855591,16.52412509918215,2444.9124755859348,68.48312759399414,1150.07250976562,174.652496337891,1454.69116210937,1295.788757324215,4.995768308639525,377.208343505859,56.3125,381.145843505859,462.75,70.5,27.875,16.10591158824865,-91.8231945,12,"[1, 3, 2, 12, 15]"
199,Spigelia chiapensis,Spigelia chiapensis,319214-2,319214-2,Species,14.5962495803833,119.071998596191,15.8602504730225,12.8787498474121,1772.79504394531,79.5425033569336,840.371276855469,80.390251159668,1153.19116210938,2218.88256835938,3.75219988822937,224.5,60.9583320617676,292.023803710938,1415.5,59.625,26.4375,16.516667,-92.5,3,"[12, 3]"
200,Spigelia chocoensis,Spigelia chocoensis,77093116-1,77093116-1,Species,25.6334991455078,28.3735008239746,26.0384998321533,25.3257503509521,6553.5,12.8887500762939,2225.11108398438,1583.185546875,54.9556770324707,78.5824966430664,0.601870894432068,485.770843505859,47.5416679382324,1901.125,2809.25,65.8125,25.5,5.516389,-76.650556,1,[1]
201,Spigelia cipoensis,Spigelia cipoensis,285434-2,285434-2,Species,18.9260005950928,184.119506835938,20.8782501220703,16.2119998931885,1812.88903808594,89.1367492675781,1057.08129882812,44.5854988098145,1227.62609863281,1169.91003417969,3.69035840034485,196.58332824707,49.0833320617676,313.5625,2699.5,55.0,22.6875,-19.183333,-43.533333,12,"[12, 11]"
202,Spigelia cremnophila,Spigelia cremnophila,1004882-1,1004882-1,Species,22.0774993896484,155.121002197266,23.5564994812012,19.6912498474121,870.01123046875,52.3009986877441,327.088012695312,78.7052536010742,590.080322265625,715.54248046875,3.72185206413269,176.97917175293,58.8958320617676,225.39582824707,2831.5,46.625,20.25,-12.455556,-41.452778,3,[3]
203,Spigelia flava,Spigelia flava,300211-2,300211-2,Species,21.3482494354248,149.988250732422,22.7292499542236,18.9897499084473,791.828979492188,82.349250793457,409.331237792969,21.5307502746582,1237.88647460938,938.697509765625,5.49819183349609,162.888885498047,57.25,181.0,3987.0,49.0,19.625,-13.523611,-41.916667,3,"[3, 12, 15]"
204,Spigelia gentianoides,Spigelia gentianoides,30333464-2,30333464-2,Species,19.3400001525879,593.247253417969,26.5165004730225,11.387749671936,1511.55200195312,25.6947498321533,512.408996582031,276.090240478516,46.1357345581055,46.4575004577637,0.315059959888458,424.644439697266,53.0833320617676,222.3125,1408.0,32.0,12.375,30.57575,-85.016864,14,[14]
205,Spigelia genuflexa,Spigelia genuflexa,77114017-1,77114017-1,Species,25.0610008239746,147.400253295898,26.7032508850098,22.9652500152588,1412.5537109375,41.5914993286133,573.06298828125,212.122497558594,122.601104736328,121.970001220703,0.75976949930191,168.6875,53.3333320617676,266.520843505859,2713.75,53.25,19.8125,-12.016667,-38.033333,1,[1]
206,Spigelia gracilis,Spigelia gracilis,546938-1,546938-1,Species,20.7819995880127,153.531753540039,22.33125019073485,18.43150043487545,822.978240966797,77.1910018920898,344.8477478027345,47.5867500305176,971.624633789063,948.931243896484,2.4352144002914446,159.07291412353499,60.0625,204.9375,2995.875,42.0,19.625,-12.18306,-41.5231945,3,"[6, 11, 3, 12, 15]"
207,Spigelia guianensis,Spigelia guianensis,546940-1,546940-1,Species,25.6483745574951,63.293375015258746,26.22475051879885,24.921250343322747,2668.6982421875,42.6074981689453,984.440246582031,348.946502685547,83.1634330749512,91.2525024414062,0.4019403457641605,202.861114501953,44.5,254.6875,2381.0,48.0,21.9375,0.3265445,-60.80505,1,"[1, 2]"
208,Spigelia hedyotidea,Spigelia hedyotidea,546944-1,546944-1,Species,19.6747493743896,618.028350830078,27.12912464141845,11.245999813079798,888.4386291503905,37.5629997253418,293.259490966797,136.423751831055,529.2700805664065,531.447509765625,1.39286780357361,217.969696044922,70.625,250.033340454102,681.25,49.2222213745117,22.9375,29.056662,-98.5059545,14,"[14, 1, 4, 12, 7, 6, 2, 3, 15]"
209,Spigelia herzogiana,Spigelia herzogiana,242201-2,242201-2,Species,24.0497493743896,194.518997192383,25.816499710083,21.1827507019043,2058.27905273438,56.5924987792969,926.209228515625,173.587493896484,212.880889892578,217.012496948242,0.123737432062626,249.85417175293,53.125,344.479156494141,1769.25,47.0,21.875,-16.7261,-64.435,1,[1]
210,Spigelia hirtula,Spigelia hirtula,77080992-1,77080992-1,Species,20.9764995574951,180.246994018555,22.7432498931885,18.2665004730225,1613.25219726562,89.5807495117188,937.642272949219,37.2210006713867,995.689758300781,927.044982910156,3.25755596160889,196.3125,50.4375,300.041656494141,2588.5,55.75,21.4375,-19.05,-43.7,3,"[3, 11]"
211,Spigelia hurleyi,Spigelia hurleyi,20002791-1,20002791-1,Species,19.95075035095215,177.871002197266,21.708374977111802,17.3081245422363,1472.2451171875,86.0175018310547,819.839599609375,36.84312629699705,1089.4182739257799,1085.27377319336,2.4616254568100002,158.22917175293,51.2291679382324,270.5625,3213.5,49.625,20.875,-18.4758335,-43.508333,11,"[11, 3]"
212,Spigelia insignis,Spigelia insignis,324567-2,324567-2,Species,21.2320003509521,357.869506835938,25.808500289917,16.4099998474121,1520.25695800781,34.7822494506836,585.353271484375,191.573501586914,154.678665161133,128.830001831055,1.10559749603271,221.0625,56.3333320617676,245.466659545898,1693.5,54.4285697937012,22.9375,-25.116667,-57.316667,14,"[6, 2, 14, 12]"
213,Spigelia kleinii,Spigelia kleinii,242207-2,242207-2,Species,16.8465003967285,277.915740966797,20.0799999237061,13.1759996414185,2382.24194335938,20.5532493591309,703.965270996094,441.801239013672,1036.8974609375,1076.70495605469,1.88495445251465,354.125,50.0208320617676,402.125,975.0,86.75,29.9375,-25.3994719783354,-51.458056,15,[15]
214,Spigelia kuhlmannii,Spigelia kuhlmannii,546954-1,546954-1,Species,22.463249206543,148.475250244141,23.9507503509521,20.1502494812012,689.291015625,57.0340003967285,302.869995117188,59.4090003967285,793.858703613281,703.497497558594,2.74079251289368,168.97917175293,61.6666679382324,229.5625,3685.5,37.1875,17.0,-10.3,-40.25,6,"[6, 3]"
215,Spigelia laurina,Spigelia laurina,546956-1,546956-1,Species,23.7137498855591,147.376373291016,25.4020004272461,21.65487480163575,1502.3579711914049,20.5862503051758,492.28173828125,265.09825897216797,238.67313385009749,226.514999389648,1.7167749404907249,248.91667175293,52.58541679382325,385.854156494141,2858.75,55.5625,22.9375,-14.485,-39.4395835,1,"[3, 0, 1, 2, 6]"
216,Spigelia leiocarpa,Spigelia leiocarpa,20002813-1,20002813-1,Species,25.6310005187988,48.0572509765625,26.0212497711182,24.9192504882812,1855.89050292969,44.6817512512207,719.148010253906,195.516006469727,183.083099365234,181.292495727539,0.152281656861305,173.83332824707,48.8222236633301,238.511108398438,3004.75,45.0666656494141,22.8125,-9.1839,-74.14,1,[1]
217,Spigelia linarioides,Spigelia linarioides,546958-1,546958-1,Species,21.8602504730225,157.126495361328,23.0547504425049,19.6117496490479,924.462768554688,84.0719985961914,406.893005371094,37.2210006713867,923.382263183594,890.132507324219,2.56687211990356,152.3125,58.1458320617676,188.02082824707,3216.75,43.875,19.5,-13.046111,-41.548831,3,"[12, 11, 6, 3]"
218,Spigelia loganioides,Spigelia loganioides,546960-1,546960-1,Species,20.9955005645752,492.846252441406,27.0092506408691,14.2775001525879,1356.94677734375,50.6570014953613,602.886474609375,188.750747680664,31.6537399291992,27.9500007629395,0.160849198698997,1423.83337402344,55.3076934814453,344.090911865234,565.0,39.9230766296387,10.9375,29.202133,-82.451336,14,[14]
219,Spigelia longiflora,Spigelia longiflora,546961-1,546961-1,Species,17.8592491149902,276.36962890625,20.8526258468628,13.7247495651245,1209.14331054688,78.3182487487793,633.9620971679685,79.3392486572266,1456.88366699219,1498.77746582031,8.490465641021729,266.3125,66.6041641235352,317.066680908203,327.0,66.75,27.0625,21.179769409127303,-99.137214,11,"[12, 7, 11, 3, 6, 2]"
220,Spigelia luciatlantica,Spigelia luciatlantica,20007552-1,20007552-1,Species,24.1337509155273,189.401504516602,26.3687496185303,21.4437503814697,1380.82751464844,87.1520004272461,802.107482910156,39.4907493591309,366.232696533203,297.274993896484,0.738700866699219,164.642852783203,52.3111114501953,228.880950927734,2199.75,46.0666656494141,22.6875,-19.767778,-42.636944,3,[3]
221,Spigelia lundiana,Spigelia lundiana,546964-1,546964-1,Species,19.59662437438965,186.84513092040999,21.65887451171875,16.897000312805197,1807.39245605469,89.1125030517578,1051.58703613281,45.2789993286133,1038.608001708985,1023.866210937499,3.35745406150818,208.125,49.8958320617676,266.799987792969,2563.125,55.125,23.375,-19.8583335,-43.6183335,3,"[3, 12, 11]"
222,Spigelia macrophylla,Spigelia macrophylla,546965-1,546965-1,Species,21.4305000305176,190.102249145508,24.0267505645752,19.0629997253418,1751.64025878906,41.4824981689453,691.263488769531,217.442749023438,651.354553222656,302.274993896484,3.51773166656494,291.282043457031,50.4047622680664,437.142852783203,1481.25,73.2857131958008,22.875,-23.335,-44.816667,1,"[1, 2]"
223,Spigelia marilandica,Spigelia marilandica,546966-1,546966-1,Species,16.1189994812012,743.754272460938,25.6317501068115,5.97399997711182,1395.9267578125,16.1825008392334,410.902008056641,279.173736572266,187.013854980469,189.970001220703,0.730872213840485,185.102569580078,53.7708320617676,232.58332824707,1661.5,43.53125,22.875,34.683466,-86.534977,14,"[14, 25, 0]"
224,Spigelia martiana,Spigelia martiana,546967-1,546967-1,Species,19.2312507629395,322.120758056641,25.1012496948242,14.73062515258785,1828.9052734375,27.8523750305176,569.397247314453,309.961761474609,214.592803955078,241.460006713867,1.08596444129944,252.15555572509749,51.9791660308838,268.177085876465,1402.75,61.625,25.5625,-26.37,-55.095,14,"[14, 15, 7, 1]"
225,Spigelia megapotamica,Spigelia megapotamica,77093118-1,77093118-1,Species,25.5262508392334,45.2029991149902,25.8560009002686,24.8332500457764,3137.55346679688,22.1112499237061,1043.83947753906,602.767028808594,102.927978515625,96.7750015258789,0.262453198432922,213.444442749023,45.466667175293,299.799987792969,1805.75,55.0,20.1875,0.516667,-67.266667,1,[1]
226,Spigelia mexicana,Spigelia mexicana,546968-1,546968-1,Species,26.3387508392334,127.696998596191,27.9122505187988,24.6124992370605,682.104248046875,106.299003601074,442.459747314453,12.4180002212524,360.875335693359,507.172485351562,5.67410516738892,220.14582824707,67.5,215.97917175293,522.5,43.5,25.1875,18.7314395,-101.674196,6,[6]
227,Spigelia nicotianiflora,Spigelia nicotianiflora,242218-2,242218-2,Species,23.09287452697755,263.8316192626955,25.9813747406006,19.089750289917,1707.5419921875,35.763999938964844,583.488220214844,200.9157485961915,252.563705444336,309.123748779297,1.2562455534934949,193.90625,54.2291660308838,232.46875,1336.75,40.91875076293945,19.125,-22.647914999999998,-56.26652,2,"[2, 12, 3, 14]"
228,Spigelia novogranatensis,Spigelia novogranatensis,331049-2,331049-2,Species,19.2035007476807,35.1622505187988,19.585750579834,18.8162498474121,3537.939453125,33.085750579834,1219.18823242188,560.1572265625,1294.49584960938,1465.96252441406,7.1743335723877,396.177764892578,51.125,658.666687011719,1367.0,94.375,28.0,6.28333,-75.083333,1,"[1, 15]"
229,Spigelia olfersiana,Spigelia olfersiana,546974-1,546974-1,Species,19.9737491607666,216.056243896484,22.255500793457,16.8882503509521,1442.36303710938,77.3247528076172,745.975219726562,56.2760009765625,982.648193359375,932.392517089844,1.48119604587555,197.79167175293,51.3125,242.22917175293,2313.25,51.8125,22.6875,-21.76,-45.03,11,"[11, 3]"
230,Spigelia paraguariensis,Spigelia paraguariensis,242222-2,242222-2,Species,22.40862464904785,357.917999267578,26.66337490081785,17.71762561798095,1639.79150390625,32.2007484436035,545.723266601562,222.142242431641,104.703598022461,116.382499694824,0.717853307723999,176.97917175293,54.8125,211.04167175293,2027.75,40.625,19.8125,-25.46,-57.095,14,"[14, 2, 3, 7]"
231,Spigelia pedunculata,Spigelia pedunculata,546982-1,546982-1,Species,16.2027492523193,20.8227500915527,16.4532508850098,15.9812498092651,2541.30859375,41.2976245880127,971.1982421875,293.727996826172,2489.88916015625,2019.69494628906,9.91666889190674,396.25,52.1979160308838,583.6770935058595,1158.25,97.75,28.6875,0.15,-78.1869,15,"[9, 29, 1, 15, 2, 3, 12]"
232,Spigelia persicarioides,Spigelia persicarioides,242225-2,242225-2,Species,24.0042495727539,27.3247509002686,24.4047508239746,23.7172508239746,6553.5,23.0927505493164,2897.21240234375,1512.59497070312,40.437671661377,348.002502441406,4.74847841262817,393.791656494141,47.9555549621582,1310.125,3279.5,61.7333335876465,27.5,3.733333,-76.95,1,[1]
233,Spigelia petiolata,Spigelia petiolata,20002804-1,20002804-1,Species,25.6310005187988,48.0572509765625,26.0212497711182,24.9192504882812,1855.89050292969,44.6817512512207,719.148010253906,195.516006469727,183.083099365234,181.292495727539,0.152281656861305,173.83332824707,48.8222236633301,238.511108398438,3004.75,45.0666656494141,22.8125,-9.1839,-74.14,1,[1]
234,Spigelia polystachya,Spigelia polystachya,546986-1,546986-1,Species,26.1275005340576,148.157257080078,27.9562492370605,23.8257503509521,1112.23046875,75.0707473754883,501.632995605469,62.6527481079102,174.091415405273,183.912506103516,0.575898587703705,214.08332824707,64.0208358764648,267.023803710938,3192.75,53.125,24.75,10.533333,-85.34,3,"[3, 2, 6, 1]"
235,Spigelia pulchella,Spigelia pulchella,546987-1,546987-1,Species,21.5510005950928,151.900497436523,23.0187492370605,19.2202491760254,924.462768554688,58.304500579834,384.122985839844,72.0924987792969,858.362854003906,813.387512207031,3.72185206413269,173.625,57.7708320617676,216.72917175293,3099.0,46.625,20.25,-13.0051945,-41.416667,3,"[3, 12, 6, 15, 1]"
236,Spigelia pusilla,Spigelia pusilla,546989-1,546989-1,Species,18.9115009307861,301.966247558594,22.8337497711182,14.5527496337891,1782.26696777344,28.8864994049072,608.838500976562,303.119750976562,519.080322265625,476.790008544922,3.04633665084839,353.04443359375,50.375,474.466674804688,1116.75,69.1875,24.9375,-26.8375,-49.366111,14,"[3, 15, 14, 1, 2, 11]"
237,Spigelia pygmaea,Spigelia pygmaea,242228-2,242228-2,Species,26.0947494506836,181.687744140625,27.9512500762939,23.7434997558594,1223.01794433594,69.2720031738281,557.610778808594,91.6474990844727,94.2770080566406,107.580001831055,0.519664287567139,269.755554199219,72.6444473266602,350.5,124.75,72.1875,26.125,19.27083,-89.73,3,"[3, 2, 1]"
238,Spigelia queretarensis,Spigelia queretarensis,77093115-1,77093115-1,Species,18.1984996795654,282.103759765625,21.2005004882812,14.1715002059937,1209.14331054688,79.4107513427734,635.600219726562,79.3392486572266,1410.36291503906,1309.16003417969,5.55644130706787,299.854156494141,66.6041641235352,387.729156494141,327.0,70.8125,27.125,21.256111,-99.1875,11,[11]
239,Spigelia riedeliana,Spigelia riedeliana,242233-2,242233-2,Species,21.1714992523193,172.718002319336,22.6685009002686,18.544750213623,1321.61499023438,90.796501159668,763.870239257812,22.081750869751,946.950134277344,978.712524414062,2.61288833618164,139.25,54.1666679382324,163.25,3213.5,46.0625,20.0625,-17.883333,-43.890778,3,"[11, 3, 12]"
240,Spigelia rojasiana,Spigelia rojasiana,242235-2,242235-2,Species,18.0375003814697,272.0521240234375,22.377249717712402,14.2259998321533,1792.23876953125,27.51662445068355,670.552001953125,301.859252929688,694.3490295410155,702.092498779297,1.674190402030945,257.3645858764645,51.8541679382324,343.229156494141,1017.5,69.8125,26.0625,-25.3975139891677,-51.45845246314195,15,"[15, 14, 3]"
241,Spigelia humboldtiana,Spigelia humboldtiana,546947-1,546947-1,Species,23.2280006408691,144.849746704102,24.88450050354,21.168249130249,2327.73291015625,59.5967483520508,1084.353515625,178.493255615234,373.293640136719,380.627502441406,3.10302782058716,324.577789306641,56.5625,353.083343505859,1488.5,62.2142868041992,26.3125,13.83072,-87.953611,2,"[1, 2, 15, 3, 14, 12, 11, 7, 0, 6]"
242,Spigelia scabrella,Spigelia scabrella,547002-1,547002-1,Species,18.2332496643066,199.673751831055,20.8455009460449,15.28087520599365,935.0211181640625,103.025497436523,599.341247558594,33.503374099731445,2007.51525878906,1945.625,4.41839790344238,236.52082824707,61.8958339691162,223.380950927734,146.5,51.3846168518066,26.9375,19.6675815,-101.33361049999999,12,"[12, 3, 6, 11]"
243,Spigelia schlechtendaliana,Spigelia schlechtendaliana,547003-1,547003-1,Species,20.9764995574951,176.702499389648,22.8419990539551,18.2665004730225,1613.25219726562,86.9287490844727,820.468994140625,31.5125007629395,955.85595703125,954.265014648438,2.92778134346008,167.4375,53.3125,237.5625,2596.0,53.4000015258789,21.4375,-18.166667,-43.789205,3,"[3, 12, 11, 15, 1]"
244,Spigelia schultesii,Spigelia schultesii,77106774-1,77106774-1,Species,25.081750869751,47.8587493896484,25.4874992370605,24.3067493438721,3486.26391601562,19.4230003356934,1134.96203613281,714.602478027344,133.645431518555,132.557495117188,0.465950548648834,265.555541992188,44.5625,413.479156494141,2261.0,54.0625,19.3125,-0.42,-70.5,1,[1]
245,Spigelia sellowiana,Spigelia sellowiana,547007-1,547007-1,Species,20.206874847412102,180.547256469727,21.959875106811502,17.43612480163575,1607.5139770507799,88.7994995117188,912.467224121094,36.4449996948242,1019.75347900391,1056.9712524414049,3.48942971229553,184.55207824707,52.30416679382325,258.4062576293945,2862.5,52.5,22.125,-19.047222,-43.72039375851405,11,"[11, 12, 3]"
246,Spigelia sordida,Spigelia sordida,77080991-1,77080991-1,Species,20.8264999389648,167.304992675781,22.4402503967285,18.2660007476807,1195.56604003906,93.5930023193359,700.967224121094,16.8535003662109,1048.45434570312,1007.27252197266,3.26764297485352,165.16667175293,55.3125,184.52082824707,3302.5,49.25,19.5,-17.038333,-43.346389,3,"[3, 12]"
247,Spigelia spartioides,Spigelia spartioides,547010-1,547010-1,Species,20.4962501525879,187.051498413086,22.69250011444095,17.6977500915527,1500.18432617188,86.89312744140625,861.6334838867185,41.7678756713867,942.548461914062,925.902526855469,3.6069860458374,192.53125,52.6458320617676,253.02082824707,2467.5,51.25,23.25,-19.455564000000003,-43.382361,3,"[11, 12, 3, 6]"
248,Spigelia speciosa,Spigelia speciosa,547011-1,547011-1,Species,17.869499206543,126.164749145508,19.4575004577637,16.1439990997314,1440.74499511719,102.558250427246,873.847473144531,38.8802490234375,1927.46813964844,1918.43249511719,9.87181663513184,312.479156494141,58.8125,317.083343505859,607.0,60.3125,26.75,17.594304,-99.83833,3,"[12, 3, 14]"
249,Spigelia sphagnicola,Spigelia sphagnicola,547012-1,547012-1,Species,25.8530006408691,176.055252075195,28.043249130249,23.6012496948242,1282.84521484375,68.7252502441406,562.254516601562,82.2017517089844,16.0914134979248,3.46000003814697,0.0597687177360058,439.190490722656,68.5833358764648,505.3125,1406.5,62.0625,29.375,21.62117,-79.03635,3,[3]
250,Spigelia splendens,Spigelia splendens,547015-1,547015-1,Species,21.897999763488798,131.880752563477,23.56837558746335,20.0396251678467,1560.17224121094,90.7304992675781,841.014129638672,51.1362495422363,946.149597167969,886.200012207031,6.108426570892335,223.966667175293,63.0625,248.66667175293,582.125,54.4545440673828,28.25,16.77739123772735,-93.07459055314166,3,"[3, 12, 2, 1]"
251,Spigelia spruceana,Spigelia spruceana,77155583-1,77155583-1,Species,26.6252498626709,83.6957473754883,27.7604999542236,25.6474990844727,1763.34448242188,70.5595016479492,836.30322265625,48.0169982910156,178.872573852539,170.595001220703,0.356557875871658,182.70832824707,49.8125,198.60417175293,3443.25,40.9375,19.9375,-6.369433,-48.783344,3,[3]
252,Spigelia stenocardia,Spigelia stenocardia,77089479-1,77089479-1,Species,19.95125007629395,182.1832504272465,21.8107500076294,17.2392501831055,1713.0706176757799,89.35874938964845,997.3617858886695,40.9032497406006,1007.7216186523456,1048.477508544923,3.47395718097687,187.41666412353499,50.8958339691162,276.05207824707054,2725.5,52.6875,21.78125,-19.1930695,-43.618513500000006,12,"[3, 12]"
253,Spigelia stenophylla,Spigelia stenophylla,547016-1,547016-1,Species,17.8864994049072,373.214752197266,23.0769996643066,13.1759996414185,1957.62951660156,20.5160007476807,595.734252929688,365.192993164062,219.346267700195,222.279998779297,1.74343025684357,309.25,51.7555541992188,319.375,944.25,65.5625,27.375,-27.65,-55.16,14,"[14, 15, 7]"
254,Spigelia tetraptera,Spigelia tetraptera,242239-2,242239-2,Species,18.4192504882812,271.628234863281,22.1110000610352,14.9174995422363,1956.64697265625,36.4092483520508,712.044250488281,309.367004394531,563.58447265625,476.790008544922,3.90469908714294,343.354156494141,50.2291679382324,491.125,1234.5,73.8125,25.375,-25.476944,-49.002222,14,"[15, 11, 2, 14, 3, 1, 12]"
255,Spigelia texana,Spigelia texana,547019-1,547019-1,Species,20.8075008392334,581.542724609375,27.9322490692139,12.9645004272461,1304.17553710938,20.8182506561279,384.270263671875,238.021499633789,21.8614959716797,20.9575004577637,0.110521666705608,236.5625,63.1777763366699,270.645843505859,1847.5,49.2222213745117,23.9375,29.381783,-95.77806,14,[14]
256,Spigelia trispicata,Spigelia trispicata,319215-2,319215-2,Species,21.3687496185303,133.717254638672,23.2532501220703,19.7495002746582,1118.60998535156,111.229248046875,738.651489257812,15.1440000534058,1536.966796875,1340.52502441406,7.93314504623413,283.9375,61.625,249.125,484.25,48.9375,26.8125,18.1775,-101.163056,3,[3]
257,Spigelia vestita,Spigelia vestita,242243-2,242243-2,Species,17.5207500457764,350.873260498047,21.7994995117188,12.5834999084473,1687.16955566406,15.3319997787476,546.058227539062,341.026763916016,438.939056396484,514.802490234375,1.16532599925995,240.6875,51.2083320617676,338.666656494141,920.25,62.5,27.1875,-29.164167,-52.498889,14,"[14, 15]"
258,Strychnos aculeata,Strychnos aculeata,547024-1,547024-1,Species,25.3059997558594,93.72487258911136,26.5160007476807,24.2590007781982,1717.98278808594,58.4292488098145,729.515380859375,148.094757080078,123.08032989502,102.592498779297,0.503260731697083,169.47917175293,51.2051277160645,228.44792175293,12256.0,40.0,17.6875,5.3,-4.05,3,"[1, 3, 2]"
259,Strychnos acuta,Strychnos acuta,547027-1,547027-1,Species,21.4702491760254,208.886749267578,24.10550022125245,18.7450008392334,1514.04724121094,52.64299964904785,689.613525390625,152.509246826172,213.351806640625,438.489990234375,2.10866355895996,238.552192687988,53.466667175293,326.377777099609,2390.5,55.6666679382324,21.375,-22.525,-43.015139000000005,3,"[1, 2, 3, 14, 15, 11]"
260,Strychnos afzelii,Strychnos afzelii,547031-1,547031-1,Species,25.6389999389648,95.8117523193359,26.8987503051758,24.4392509460449,1540.93530273438,62.0412483215332,696.788757324219,112.986000061035,114.365653991699,128.802505493164,0.509602904319763,184.466659545898,53.0740737915039,240.77082824707,12256.0,40.4000015258789,17.1875,6.16667,-6.1,3,"[3, 2, 1]"
261,Strychnos alvimiana,Strychnos alvimiana,247277-2,247277-2,Species,24.632999420166,124.602745056152,26.07874965667725,22.91312503814695,2024.848388671875,22.77812480926515,649.86474609375,387.517486572266,30.5983371734619,28.461250841617584,0.34456592425704,247.844451904297,50.0888900756836,530.200012207031,3490.875,59.466667175293,27.46875,-14.290747712995099,-39.0149835,1,"[0, 1]"
262,Strychnos amazonica,Strychnos amazonica,247278-2,247278-2,Species,25.7117500305176,52.88199996948245,26.29187488555905,25.0284996032715,2384.80151367188,40.7637481689453,903.131225585938,284.65576171875,100.45568084716774,92.05500030517581,0.428313225507736,178.0,44.131250381469755,304.0657043457035,2449.625,48.1428565979004,22.3125,-3.0751615,-67.43,1,"[1, 3, 2]"
263,Strychnos angolensis,Strychnos angolensis,547038-1,547038-1,Species,24.2042503356934,97.4445037841797,25.6892509460449,22.9902496337891,1647.78344726562,65.0394973754883,755.65673828125,51.6904983520508,556.562316894531,553.539978027344,0.624906897544861,201.9375,52.3541679382324,240.89582824707,6952.5,47.4375,21.25,0.6,13.595611,3,"[3, 1, 12, 2, 0, 11]"
264,Strychnos angustiflora,Strychnos angustiflora,547039-1,547039-1,Species,22.898750305175803,418.3643798828125,28.305874824523897,17.50925064086915,1964.99652099609,69.4962463378906,929.459991455078,127.669250488281,78.3545684814453,89.3374977111817,1.16146469116211,181.65625,54.6875,251.10417175293,3457.0,55.3020839691162,21.96875,21.2610605,110.452585,11,"[11, 3, 2, 14]"
265,Strychnos araguaensis,Strychnos araguaensis,247279-2,247279-2,Species,25.64674949646,90.6107482910156,27.0922508239746,25.0020008087158,1701.38024902344,82.1425018310547,867.0732421875,13.3412504196167,345.986145019531,374.197509765625,0.773013770580292,125.104164123535,50.3541679382324,174.79167175293,2992.5,43.875,15.1875,-12.82,-51.86667,3,"[3, 2]"
266,Strychnos axillaris,Strychnos axillaris,547050-1,547050-1,Species,23.6197490692139,69.1027526855469,25.2857494354248,22.3675003051758,2155.10180664062,42.4237518310547,769.715759277344,179.200744628906,231.277008056641,230.229995727539,2.3466157913208,249.619049072266,53.7916679382324,375.476196289062,1454.75,54.0833320617676,24.375,-2.85,128.003667,1,"[14, 11, 6, 3, 1, 2, 0]"
267,Strychnos asperula,Strychnos asperula,247280-2,247280-2,Species,25.13087463378905,67.7570037841797,25.837374687194803,24.02587509155275,2014.2366333007799,59.34387588500975,901.841491699219,142.8348693847655,217.983383178711,214.607498168945,0.47253492474555947,184.704162597656,47.4791679382324,241.6666641235355,2375.5,46.622917175292955,22.4375,-10.539219,-68.2676,1,"[1, 2, 3]"
268,Strychnos asterantha,Strychnos asterantha,547045-1,547045-1,Species,24.3819999694824,99.4615020751953,25.8484992980957,22.9104995727539,2550.43872070312,61.6727485656738,1177.28955078125,66.5112533569336,669.445983886719,495.802490234375,3.31967115402222,224.95832824707,52.0208320617676,271.229156494141,7210.75,48.9375,21.75,4.725,10.61,3,"[2, 3]"
269,Strychnos atlantica,Strychnos atlantica,247281-2,247281-2,Species,24.205249786377,136.086242675781,25.7884998321533,22.3457508087158,1535.82873535156,21.3502502441406,532.232971191406,289.483764648438,53.8254852294922,86.6125030517578,0.929937303066254,254.33332824707,51.7777786254883,362.666656494141,2895.75,54.0666656494141,23.0625,-14.785833,-39.0642869012885,1,"[1, 3, 2, 0]"
270,Strychnos bahiensis,Strychnos bahiensis,247282-2,247282-2,Species,24.2482490539551,137.768753051758,25.8637504577637,22.3462505340576,1763.12438964844,18.89100074768065,532.450744628906,343.32275390625,42.0027694702148,76.6350021362305,0.6642484366893765,287.42985534667946,52.0,437.833343505859,2734.25,51.46875,24.625,-15.15,-39.08,1,"[1, 6, 3, 2]"
271,Strychnos barnhartiana,Strychnos barnhartiana,247283-2,247283-2,Species,25.9072494506836,44.1769981384277,26.3812503814697,25.2477493286133,2959.591796875,26.0337505340576,944.686767578125,471.036987304688,85.1052627563477,99.8225021362305,0.325266450643539,230.952377319336,41.7777786254883,321.571441650391,2202.0,55.1666679382324,22.5,-2.768745,-67.9397,1,[1]
272,Strychnos barteri,Strychnos barteri,547059-1,547059-1,Species,25.3059997558594,96.25799942016599,26.5160007476807,24.2590007781982,1728.87451171875,61.908748626709,746.121765136719,112.986000061035,154.977836608887,168.67124938964798,0.590031325817108,186.22917175293,52.2291679382324,245.375,12641.75,41.75,17.84375,5.916667,-5.975,3,"[2, 3, 1]"
