,Accepted_Name,Accepted_Species,Accepted_Species_ID,Accepted_ID,Accepted_Rank,bio1,bio4,bio10,bio11,bio12,bio15,bio16,bio17,brkl_elevation,elevation,slope,soil_nitrogen,soil_ph,soil_soc,soil_depth,soil_ocs,soil_water_cap,latitude,longitude,kg_mode,kg_all
0,Geniostoma antherotrichum,Geniostoma antherotrichum,546361-1,546361-1,Species,16.68274974822995,38.67562484741215,17.0287504196167,15.851125240325949,3751.821044921875,25.039000511169448,1164.79302978516,602.557983398438,1683.08581542969,1872.6449584960951,7.77179837226868,485.04167175292946,52.6666660308838,732.635437011719,1030.75,117.3125,31.65625,-6.083333,145.083,15,"[15, 1, 29, 2]"
1,Geniostoma antherotrichum var. antherotrichum,Geniostoma antherotrichum,546361-1,77230903-1,Variety,17.9099998474121,69.1027526855469,18.1487503051758,17.4757499694824,2712.27221679688,21.8612499237061,787.804992675781,588.911987304688,1491.23266601562,1716.73999023438,7.04172897338867,427.541656494141,52.5,738.729187011719,1253.0,109.8125,28.625,-7.166667,146.72,1,"[1, 15]"
2,Geniostoma antherotrichum var. archboldianum,Geniostoma antherotrichum,546361-1,886534-1,Variety,15.68024969100955,43.56537437438965,16.06099939346315,15.02850008010865,5197.37451171875,19.20999956130985,2162.73101806641,1366.8786926269531,1833.623229980465,2126.018737792965,8.90698409080506,531.145812988281,51.46875,933.8854064941405,930.375,126.3125,34.25,-5.04,140.425,15,"[15, 29]"
3,Geniostoma densiflorum,Geniostoma densiflorum,546391-1,546391-1,Species,21.9492492675781,211.481246948242,24.6280002593994,19.2417507171631,1608.62670898438,42.9052505493164,651.478759765625,226.372253417969,222.847640991211,202.7937545776365,4.05791759490967,240.972229003906,53.3571434020996,428.044448852539,1013.75,68.0714263916016,23.5625,-22.07986,166.497355,1,"[1, 14, 3, 0]"
4,Geniostoma densiflorum var. oleifolium,Geniostoma densiflorum,546391-1,886535-1,Variety,22.5332508087158,193.432754516602,24.9932498931885,20.023250579834,1599.28271484375,47.0429992675781,693.287231445312,206.970001220703,441.149597167969,107.597503662109,3.13041067123413,267.848480224609,53.7272720336914,440.25,582.75,71.2727279663086,24.375,-21.666667,166.216667,14,[14]
5,Geniostoma rupestre var. ligustrifolium,Geniostoma rupestre,546462-1,953860-1,Variety,13.2565002441406,306.32275390625,17.238000869751,9.47624969482422,1730.91577148438,18.30299949646,536.5,336.368255615234,238.401657104492,264.452514648438,3.25263667106628,367.791656494141,52.4000015258789,1012.66668701172,1045.25,104.375,28.0625,-38.00895,175.3231235,15,"[15, 0, 27]"
6,Geniostoma rupestre,Geniostoma rupestre,546462-1,546462-1,Species,21.9492492675781,151.795501708984,24.4072494506836,20.13175010681155,2304.0633544921902,40.97900009155275,907.394775390625,327.311248779297,220.243766784668,253.838752746582,4.36131572723389,307.9444427490235,53.3333320617676,513.25,1234.75,70.0,27.375,-18.021002,164.305,1,"[14, 11, 1, 15, 2, 3, 0, 12]"
7,Geniostoma rupestre var. australianum,Geniostoma rupestre,546462-1,886538-1,Variety,21.513500213623,248.877746582031,24.2544994354248,17.4947490692139,1643.01794433594,85.9127502441406,982.658508300781,105.764251708984,534.451538085938,491.720001220703,4.446680307388305,178.62900543212902,55.3541679382324,279.270843505859,1808.25,53.928571701049805,20.5,-17.11835,145.6297185,11,"[14, 3, 2, 11, 1, 6, 0]"
8,Geniostoma rupestre var. crassifolium,Geniostoma rupestre,546462-1,886540-1,Variety,22.7927494049072,201.204742431641,25.3632507324219,20.1760005950928,1176.39575195312,41.8745002746582,469.777252197266,155.801254272461,222.847640991211,17.0174999237061,0.723903357982635,263.111114501953,53.523811340332,447.555541992188,837.5,68.0714263916016,25.25,-22.178426,166.443092,3,[3]
9,Geniostoma rupestre var. glaberrimum,Geniostoma rupestre,546462-1,886543-1,Variety,26.3225002288818,59.523250579834,27.0144996643066,25.5157508850098,2563.93383789062,37.1051254272461,1082.93713378906,363.370513916016,18.444599270820603,17.30624961853028,0.522218927741051,304.916656494141,55.5,530.125,1297.0,64.3125,28.75,-15.599499999999999,-7.5789999999999935,1,[1]
10,Geniostoma rupestre var. lasiostemon,Geniostoma rupestre,546462-1,77217228-1,Variety,26.9412498474121,9.50899982452393,27.1392498016357,26.9384994506836,4855.7587890625,11.5737495422363,1339.50219726562,1080.17321777344,6.33240985870361,2.11500000953674,0.160937160253525,459.75,55.3333320617676,1476.0,1466.0,88.3333358764648,31.625,5.338833,163.002,0,"[1, 0]"
11,Geniostoma rupestre var. rupestre,Geniostoma rupestre,546462-1,77230242-1,Variety,24.0437507629395,70.4684982299805,24.8379993438721,23.0435009002686,3115.482421875,20.4794998168945,907.394775390625,527.013000488281,29.3019390106201,404.942504882812,6.78489351272583,313.666656494141,51.5625,790.375,1244.25,67.0,29.25,-7.361667,147.133333,1,"[1, 3]"
12,Geniostoma rupestre var. thymeleaceum,Geniostoma rupestre,546462-1,886549-1,Variety,21.6459999084473,213.748748779297,24.286750793457,18.9202499389648,2492.8260498046848,41.0872497558594,988.162261962893,360.47763061523403,121.520774841309,227.919998168945,3.77149224281311,239.8305587768555,53.216667175293,419.4611206054685,775.25,67.9448051452637,23.84375,-22.214579999999998,166.788195,1,"[1, 14]"
13,Geniostoma tinifolium,Geniostoma tinifolium,77183797-1,77183797-1,Species,22.216124534606948,133.50075531005848,23.84375,20.50412464141845,1811.872680664065,30.835999488830602,601.092361450195,304.2568740844725,285.614959716797,366.0550003051755,4.078325390815735,372.9520111083985,56.77777671813965,574.7437438964845,3459.125,75.9000015258789,30.1875,21.096049999999998,-157.2075,1,"[15, 3, 1, 0]"
14,Geniostoma tinifolium var. tinifolium,Geniostoma tinifolium,77183797-1,77233423-1,Variety,20.303625106811502,133.717498779297,22.0153751373291,18.536375045776353,2189.0155029296848,27.48787498474125,714.0106201171875,385.522003173828,343.6800537109375,661.971237182617,8.641404628753666,403.652770996094,56.19583320617675,583.8374938964845,3369.0,80.07500076293945,31.625,21.504600000000003,-158.0625,15,"[15, 3, 1]"
15,Mitrasacme nudicaulis,Mitrasacme nudicaulis,546679-1,546679-1,Species,26.4099998474121,264.6349945068355,29.1952495574951,22.551749229431152,1319.87377929688,112.383499145508,865.974731445312,5.75675010681152,220.779777526855,209.714996337891,0.6687043607234955,81.4375,62.3333320617676,101.6875,2686.5,25.40625,15.8125,-14.245750000000001,132.4775955,3,"[6, 0, 3, 11, 1, 15]"
16,Mitrasacme nudicaulis var. citrina,Mitrasacme nudicaulis,546679-1,990986-1,Variety,26.40287494659425,199.748992919922,28.636999130249,23.3112506866455,1232.417785644535,111.6547508239745,836.0956420898435,9.190999984741211,228.83795166015602,176.565002441406,1.030980348587034,97.0208320617676,64.2083358764648,120.916664123535,3448.25,26.34375,16.625,-14.85,126.333333,3,"[3, 6]"
17,Mitrasacme nudicaulis var. nudicaulis,Mitrasacme nudicaulis,546679-1,77223896-1,Variety,26.4292507171631,293.597747802734,29.5652503967285,22.2217502593994,940.943237304688,114.180999755859,642.843017578125,5.20550012588501,140.523544311523,138.962493896484,0.859289586544037,74.625,64.875,92.4444427490234,2280.25,27.21875,16.1875,-15.862055,134.82906,3,"[11, 3, 6, 14]"
18,Mitrasacme pilosa,Mitrasacme pilosa,546687-1,546687-1,Species,13.4012498855591,308.739013671875,17.3094997406006,9.96100044250488,972.164489746094,20.56112480163575,298.11137390136696,176.632507324219,147.252075195312,151.160003662109,2.05590581893921,244.9375,53.523811340332,625.272705078125,953.666687011719,78.5454559326172,20.1875,-37.947157000000004,148.1790585,15,"[15, 14, 9, 16, 7, 0]"
19,Mitrasacme pilosa var. pilosa,Mitrasacme pilosa,546687-1,51770-3,Variety,13.0367498397827,297.160736083984,17.2220001220703,9.10974979400635,1010.177734375,25.4990005493164,336.289001464844,195.280502319336,196.537399291992,204.037506103516,2.36551475524902,271.4375,52.3846168518066,668.395812988281,969.25,83.625,20.9375,-38.3495,145.961189,15,"[15, 14, 9, 7, 0, 16]"
20,Mitrasacme pilosa var. stuartii,Mitrasacme pilosa,546687-1,51799-3,Variety,13.8462495803833,277.980743408203,17.6702499389648,10.1052503585815,972.164489746094,15.6079998016357,291.39599609375,188.784744262695,107.63850402832,96.2125015258789,1.4787416458129852,232.64582824707,52.0625,625.272705078125,918.25,79.0714263916016,20.5,-38.33043,148.250599,15,"[15, 0, 9, 16]"
21,Mitrasacme pygmaea,Mitrasacme pygmaea,546693-1,546693-1,Species,21.7835006713867,372.550750732422,25.611499786377,16.7727508544922,1562.63330078125,83.8097534179688,823.514221191406,88.8274993896484,131.013854980469,140.907501220703,1.82207322120667,192.948715209961,56.88621711730955,250.743591308594,2151.0,48.4833335876465,22.25,-8.22015,139.455691,3,"[11, 0, 14, 3, 6, 21, 1, 25, 2, 15]"
22,Mitrasacme pygmaea var. pygmaea,Mitrasacme pygmaea,546693-1,52183-3,Variety,26.3947505950928,59.2415008544922,27.1832504272461,25.5157508850098,2492.78271484375,48.7179985046387,964.370239257812,277.320739746094,45.4681434631348,29.9375,0.540301322937012,261.787872314453,52.1777763366699,479.145843505859,2784.25,59.0714302062988,26.0833339691162,-1.666531,121.922222,1,"[3, 1, 2, 0, 14]"
23,Neuburgia corynocarpa,Neuburgia corynocarpa,546787-1,546787-1,Species,24.5322494506836,45.1258735656738,25.2612495422363,23.68037509918215,3170.849609375,23.79575061798095,1044.6689453125,565.64697265625,258.236831665039,299.959991455078,4.073367595672606,360.866668701172,52.6458320617676,709.375,1296.75,70.875,28.8125,-6.2166665000000005,146.95833299999998,1,"[1, 0, 15]"
24,Neuburgia corynocarpa var. corynocarpa,Neuburgia corynocarpa,546787-1,77224650-1,Variety,26.6941251754761,33.25312423706055,27.00900077819825,26.1944999694824,3312.576171875,13.9835000038147,989.9857482910145,710.8577575683595,6.20498597621917,22.285000801086422,0.709890987724066,312.625,51.0833320617676,978.3666687011705,1378.5,57.5,28.5833330154419,-3.2718054999999997,143.3669445,1,"[0, 1]"
25,Spigelia valenzuelae,Spigelia valenzuelae,242241-2,242241-2,Species,17.42099952697755,220.5853805541995,19.67787551879885,14.3377499580383,1228.754272460935,62.88500022888185,582.587646484375,98.9762496948241,1683.13024902344,1517.01501464844,5.857251405715945,221.0625,59.375,323.916656494141,1364.5,71.5625,24.4375,-18.1723615,-63.819028,6,[6]
26,Strychnos cathayensis,Strychnos cathayensis,547102-1,547102-1,Species,22.17699909210205,353.61250305175804,27.2752494812012,15.722625255584699,2304.357421875,80.4507522583008,1213.859130859375,131.366256713867,132.70221328735352,129.7112503051755,1.706590950489045,270.380950927734,54.4166660308838,401.333343505859,970.0,58.5714302062988,25.125,22.432071,120.712902,11,"[2, 12, 0, 14, 11]"
27,Strychnos minor,Strychnos minor,547339-1,547339-1,Species,24.5322494506836,80.8132476806641,26.0387496948242,22.8974990844727,2913.87744140625,60.1944999694824,1170.5400390625,342.524505615234,165.473678588867,195.5,2.85782694816589,269.583343505859,52.8055572509766,455.479156494141,1716.5,63.6666679382324,25.125,-6.816667,145.126102,1,"[2, 3, 0, 11, 1, 14, 15]"
28,Strychnos minor var. thorelii,Strychnos minor,547339-1,886553-1,Variety,27.5402507781982,120.814750671387,29.2730007171631,26.21875,1827.46130371094,77.5307464599609,881.944763183594,22.9300003051758,54.85595703125,66.0449981689453,0.355271548032761,170.72917175293,57.3541679382324,217.33332824707,9404.0,54.1875,23.5,12.5759,105.3894995,3,[3]
29,Strychnos mitscherlichii,Strychnos mitscherlichii,547341-1,547341-1,Species,25.4160003662109,55.6609992980957,25.8787498474121,24.7162494659424,2550.32470703125,50.3527488708496,1005.53851318359,265.72900390625,159.792236328125,165.449996948242,0.394217520952225,230.0,45.9791679382324,364.291656494141,2348.75,52.533332824707,22.6875,-1.06666,-68.2002,1,"[1, 2, 3]"
30,Strychnos mitscherlichii var. mitscherlichii,Strychnos mitscherlichii,547341-1,77227814-1,Variety,25.45075035095215,55.6609992980957,26.0466251373291,24.744374275207548,2427.581787109375,41.8892517089844,1020.76416015625,270.751007080078,149.329643249512,121.48624801635751,0.541871756315231,210.0625,45.8111114501953,294.979156494141,2476.25,50.8482151031494,22.5625,-2.291139209865035,-66.16333,1,"[1, 2, 3]"
31,Strychnos mitscherlichii var. pubescentior,Strychnos mitscherlichii,547341-1,247328-2,Variety,25.3530006408691,54.8152503967285,25.7842502593994,24.5909996032715,2434.01318359375,38.6684989929199,973.570983886719,289.619750976562,190.124649047852,208.402496337891,0.403510749340057,189.41667175293,44.8333320617676,310.5,2510.25,47.4000015258789,22.625,-3.84006893280016,-72.266667,1,"[2, 1]"
32,Mitrasacme erophila,Mitrasacme erophila,546655-1,546655-1,Species,15.8187503814697,397.667755126953,20.0592498779297,9.93624973297119,6157.74462890625,98.0607528686523,4034.56372070312,92.9804992675781,1302.94177246094,1564.29748535156,2.26671457290649,470.5,51.9583320617676,448.625,4493.0,74.5625,27.9375,25.583333,91.633333,12,[12]
33,Mitrasacme erophila subsp. grandiflora,Mitrasacme erophila,546655-1,982476-1,Subspecies,22.25062465667725,217.563499450684,24.4198751449585,18.9905004501343,1443.2479858398451,75.3293724060059,656.3108825683595,35.2238759994507,980.504150390624,969.2100219726565,3.458855628967285,218.08333587646501,57.6145839691162,220.22916412353499,2541.625,59.1875,23.90625,18.275,98.39166700000001,3,"[11, 3]"
34,Orianthera serpyllifolia,Orianthera serpyllifolia,77154375-1,77154375-1,Species,16.2035007476807,317.123748779297,19.886999130249,12.0649995803833,839.92724609375,74.1005020141602,430.994995117188,48.1557502746582,86.8587265014648,90.8600006103516,0.667248845100403,158.25,61.8958320617676,407.145843505859,2576.5,58.1875,14.625,-33.909167,116.029444,9,"[7, 9, 8]"
35,Orianthera serpyllifolia subsp. angustifolia,Orianthera serpyllifolia,77154375-1,77154376-1,Subspecies,15.7607498168945,273.545501708984,19.4992504119873,12.5732498168945,914.105529785156,73.2509994506836,477.972259521484,48.4347496032715,83.360107421875,81.6350021362305,0.957219302654266,172.0,62.0625,447.619049072266,2845.75,73.5625,14.5,-34.029167,116.111111,9,"[9, 8, 7, 0]"
36,Orianthera serpyllifolia subsp. serpyllifolia,Orianthera serpyllifolia,77154375-1,77232697-1,Subspecies,15.1657495498657,294.7294921875,18.79075050354,11.5120000839233,890.717498779297,58.5562515258789,399.710510253906,69.52199935913086,107.93074798584,138.727493286133,0.799417436122894,168.466659545898,62.2666664123535,393.642852783203,2361.0,53.4000015258789,15.0625,-34.5993215,116.939583,9,"[9, 7, 8, 0]"
37,Adelphacme minima,Adelphacme minima,77154429-1,77154429-1,Species,16.2275009155273,296.06298828125,19.5467491149902,12.7229995727539,786.729248046875,58.8914985656738,416.46923828125,71.8352508544922,93.2382278442383,76.1975021362305,0.731079816818237,143.800003051758,62.7272720336914,381.555541992188,2397.0,45.533332824707,14.5,-33.9,116.9,9,"[7, 9, 8]"
38,Antonia ovata,Antonia ovata,545655-1,545655-1,Species,24.7395000457764,102.7744979858395,25.74012470245365,23.4619998931885,1516.18225097656,80.42512512207034,790.0126342773435,25.7797508239746,524.861511230469,512.9737548828125,1.254731297492985,149.623847961426,53.3958320617676,192.102081298828,2881.5,45.65625,19.625,-13.2108335,-48.060372,3,"[3, 2, 1, 11, 12, 15, 6]"
39,Bonyunia antoniifolia,Bonyunia antoniifolia,545660-1,545660-1,Species,25.3362503051758,58.64562606811525,26.2667503356934,24.69775009155275,2290.146728515625,68.2115020751953,994.15625,93.2669982910156,296.5567932128905,311.889999389648,0.799797058105469,168.56735992431652,46.6354160308838,200.69791412353499,2436.5,47.7999992370605,19.25,-10.064278000000002,-60.769855,3,"[3, 2, 1]"
40,Bonyunia aquatica,Bonyunia aquatica,34787-2,34787-2,Species,25.4791250228882,55.9512481689453,25.92624950408935,24.640625,3164.9420166015598,39.22862434387205,1166.8518676757799,408.805755615234,114.3116340637205,124.77375411987299,0.387229561805725,200.868743896484,45.3958320617676,296.1222229003905,2215.625,47.58124923706055,20.28125,1.078472,-67.454165,1,"[1, 2, 3]"
41,Bonyunia excelsa,Bonyunia excelsa,77104860-1,77104860-1,Species,24.73400020599365,60.6378746032715,25.3555002212524,23.83562469482425,2954.1968994140652,29.765625,1041.6533813476549,468.2774963378905,186.9764556884765,177.5587463378905,0.7055297046899796,186.88541412353499,49.0104179382324,274.03125,1875.5,44.625,21.25,0.3551835,-72.51861099999999,1,[1]
42,Bonyunia magnifica,Bonyunia magnifica,77104861-1,77104861-1,Species,25.9699993133545,40.0182495117188,26.5909996032715,25.650749206543,2532.27075195312,43.4025001525879,966.970520019531,270.645751953125,42.3351783752441,45.2724990844727,0.063974641263485,187.125,40.8125,221.14582824707,1496.75,45.125,24.3125,-4.346689,-60.92273,1,[1]
43,Bonyunia minor,Bonyunia minor,34789-2,34789-2,Species,22.3862495422363,52.9669990539551,23.003999710083,21.6947498321533,2407.36376953125,56.3484992980957,1078.81372070312,188.879501342773,872.903076171875,855.857482910156,2.08523178100586,238.35417175293,51.2291679382324,315.0625,2206.25,63.9375,24.8125,5.26277,-61.48333,2,"[2, 1, 15, 3]"
44,Bonyunia nobilis,Bonyunia nobilis,77104862-1,77104862-1,Species,24.530625343322747,61.644374847412095,25.163125038147,23.6209993362427,3027.3734130859348,30.209499359130852,1077.4868774414049,472.84663391113247,220.168975830078,217.919998168945,1.009900063276293,192.67708587646501,49.2916679382324,280.010406494141,1958.125,44.6875,21.125,0.365972,-72.6294445,1,[1]
45,Bonyunia pulchra,Bonyunia pulchra,77104863-1,77104863-1,Species,23.6142501831055,48.0572509765625,24.2789993286133,22.4995002746582,2370.51196289062,45.5830001831055,963.713500976562,221.960250854492,614.5595703125,687.280029296875,6.59607315063477,261.895843505859,50.9375,469.625,1310.75,68.625,24.5625,-9.48,-75.263611,1,[1]
46,Bonyunia spectabilis,Bonyunia spectabilis,77104864-1,77104864-1,Species,21.2164993286133,54.6710014343262,21.894250869751,20.5365009307861,2331.08837890625,42.296501159668,968.143737792969,348.254486083984,886.545715332031,917.127502441406,6.52344369888306,226.83332824707,48.25,328.3125,1933.5,57.9375,24.25,5.25,-60.5816665,2,[2]
47,Bonyunia superba,Bonyunia superba,545664-1,545664-1,Species,21.2164993286133,54.6710014343262,21.894250869751,20.5365009307861,2331.08837890625,45.0144996643066,1093.8251953125,348.254486083984,886.545715332031,917.127502441406,6.52344369888306,226.83332824707,51.0416679382324,328.3125,1933.5,57.9375,24.25,5.3,-62.21,2,"[2, 15]"
48,Bonyunia venusta,Bonyunia venusta,77104865-1,77104865-1,Species,25.739624977111802,46.8983745574951,26.4591255187988,25.296500205993652,2508.30859375,38.459123611450195,943.482238769534,347.163513183594,121.77562332153335,122.32249832153315,0.787070006132126,181.907051086426,41.88055419921875,233.192314147949,1767.75,49.73749923706055,23.03125,-1.8816665,-59.9683335,1,[1]
49,Gardneria angustifolia,Gardneria angustifolia,546332-1,546332-1,Species,12.2049999237061,470.399993896484,17.6459999084473,5.61700010299683,1507.72448730469,74.2044982910156,771.635498046875,74.0337524414062,2833.82275390625,2592.59008789062,10.325213432312,430.0,58.8125,473.0,1403.25,69.5,26.1875,26.68,98.758499,12,"[12, 29, 23, 11, 2]"
50,Gardneria lanceolata,Gardneria lanceolata,546339-1,546339-1,Species,15.353250026702849,738.701263427734,24.44362449645995,5.218250036239625,1690.51623535156,59.657375335693345,788.991760253906,131.4960021972655,740.457061767578,797.148742675781,4.87604713439941,276.7589263916015,58.3125,298.822906494141,1259.75,59.125,24.03125,29.9904235,109.775,14,"[14, 11]"
51,Gardneria multiflora,Gardneria multiflora,546341-1,546341-1,Species,18.1742496490479,587.513488769531,27.0450000762939,8.86450004577637,2120.5322265625,49.880500793457,922.628234863281,226.18049621582,269.393341064453,215.517501831055,3.98933362960815,283.185180664062,51.8666648864746,388.770843505859,1117.0,65.7333297729492,25.0,25.190867,121.076376,14,"[14, 15, 0, 11]"
52,Gardneria nutans,Gardneria nutans,546343-1,546343-1,Species,16.1564998626709,676.632507324219,24.9547500610352,7.49074983596802,2250.9306640625,47.9544982910156,951.452026367188,234.632751464844,101.706367492676,139.207504272461,2.47201871871948,266.619049072266,52.8518524169922,411.149627685547,1327.8333129882799,66.4375,25.8125,33.5209200317665,133.20625,14,"[14, 0, 1, 11, 2, 15, 12]"
53,Gardneria ovata,Gardneria ovata,546344-1,546344-1,Species,23.611499786377,165.56575012207,25.710750579834,19.2647495269775,2213.29907226562,75.0607528686523,994.773010253906,58.3447494506836,588.772827148438,580.64501953125,2.67856955528259,225.58332824707,55.8333320617676,290.5,6023.75,61.5,24.625,15.438889,98.590833,3,"[11, 2, 3, 12]"
54,Geniostoma biseriale,Geniostoma biseriale,546370-1,546370-1,Species,24.3780002593994,37.0437507629395,24.8237495422363,23.8622493743896,4566.2138671875,36.7962493896484,1719.66149902344,617.908264160156,320.842102050781,387.674987792969,5.57671022415161,408.5,54.3333320617676,753.309509277344,1245.0,76.2857131958008,26.3125,-13.9289,-171.74611,1,[1]
55,Geniostoma celastrineum,Geniostoma celastrineum,546377-1,546377-1,Species,21.9790000915527,225.8597564697265,24.61400032043455,19.20850086212155,1753.7230834960951,52.3348751068115,796.237518310547,215.7626190185545,162.066482543945,252.2249984741215,5.022491693496706,234.85417175293,53.0444450378418,413.19950866699253,1248.0,67.8181838989258,22.5625,-21.442221500000002,165.56943,1,"[1, 3, 2, 0]"
56,Geniostoma clavatum,Geniostoma clavatum,546379-1,546379-1,Species,25.7180004119873,67.8509979248047,26.5752506256104,24.8072490692139,3264.8125,35.3530006408691,1210.44323730469,473.723236083984,90.5623245239258,57.4199981689453,2.03259897232056,,,,3314.0,,26.1666660308838,-16.7833,-151.466635,1,[1]
57,Geniostoma degeneri,Geniostoma degeneri,77183773-1,77183773-1,Species,18.85325050354,145.725250244141,20.6487503051758,17.0270004272461,3032.89184570312,21.6022491455078,965.002502441406,590.425476074219,376.011077880859,832.72998046875,9.18306922912598,377.155548095703,57.5416679382324,566.458312988281,3503.5,80.125,33.5625,22.09,-159.58,15,"[15, 1]"
58,Geniostoma fagraeoides,Geniostoma fagraeoides,546397-1,546397-1,Species,23.08862495422365,330.7017517089845,27.063625335693352,18.694999694824197,1352.792358398435,27.791625022888198,419.6141204833985,197.67887115478499,1.4224376678466801,8.112499713897689,0.4816191643476485,,60.6666679382324,527.333312988281,5216.0,61.0,34.25,26.871071,142.1874695,0,[0]
59,Geniostoma gaudichaudii,Geniostoma gaudichaudii,77209911-1,77209911-1,Species,22.6782493591309,133.968505859375,24.3055000305176,20.9624996185303,1457.52319335938,30.2747497558594,503.223236083984,247.658248901367,259.880889892578,240.897506713867,3.6416757106781,296.0,58.1111106872559,505.166656494141,2784.5,61.0,34.0,21.6,-157.9,1,[1]
60,Geniostoma glaucescens,Geniostoma glaucescens,546407-1,546407-1,Species,21.93337535858155,215.035751342773,24.627250671386697,19.0287504196167,2371.6513671875,52.7017517089844,1066.4657592773451,249.7296295166015,253.204986572266,323.942504882812,5.64828300476074,269.166656494141,52.9555549621582,520.555541992188,1235.75,78.6666641235352,22.71875,-20.58847,164.781385,1,"[1, 14, 0]"
61,Geniostoma hedyosmifolium,Geniostoma hedyosmifolium,77183885-1,77183885-1,Species,20.7927494049072,120.901496887207,22.1830005645752,19.4204998016357,2323.85107421875,27.175500869751,711.994262695312,426.273498535156,548.005554199219,491.212493896484,7.08210897445679,382.5,56.5625,531.6875,3234.5,77.0,31.3125,20.7487,-156.092,3,"[3, 1, 15]"
62,Geniostoma helleri,Geniostoma helleri,77183962-1,77183962-1,Species,18.85325050354,145.725250244141,20.6487503051758,17.0270004272461,3032.89184570312,21.6022491455078,965.002502441406,590.425476074219,376.011077880859,832.72998046875,9.18306922912598,416.555541992188,56.2666664123535,617.799987792969,4626.66650390625,81.4000015258789,33.25,22.1104,-159.619994,15,"[15, 3, 1]"
63,Geniostoma hirtellum,Geniostoma hirtellum,77184210-1,77184210-1,Species,21.753999710083,131.93049621582,23.3819999694824,20.0457496643066,2211.80883789062,30.2747497558594,729.059753417969,360.855499267578,459.947357177734,491.212493896484,8.09974002838135,377.155548095703,57.5416679382324,531.6875,3638.25,77.0,31.5625,21.1,-156.84,15,"[15, 3, 1]"
64,Geniostoma huttonii,Geniostoma huttonii,970839-1,970839-1,Species,19.5044994354248,209.776000976562,22.3145008087158,16.9360008239746,1593.53405761719,17.4939994812012,504.795989990234,340.434753417969,1.15512466430664,4.09000015258789,0.286062240600586,,,,,,,-31.563175,159.089304,0,[0]
65,Geniostoma hymenopodum,Geniostoma hymenopodum,77183878-1,77183878-1,Species,23.7287502288818,113.81600189209,25.1477508544922,22.2987499237061,768.934753417969,53.6549987792969,330.783264160156,85.3022537231445,109.972297668457,60.6049995422363,1.8518226146698,379.388885498047,55.2000007629395,767.833312988281,3564.75,83.1999969482422,28.1875,21.3214,-157.736,0,[0]
66,Geniostoma imbricatum,Geniostoma imbricatum,77154426-1,77154426-1,Species,20.6842498779297,217.147994995117,23.423999786377,17.8740005493164,2267.70922851562,44.2692489624023,900.532775878906,333.734497070312,527.002746582031,346.292510986328,6.32290983200073,266.589752197266,53.1555557250977,494.769226074219,961.25,75.9166641235352,24.125,-21.95,166.52861,1,"[14, 1]"
67,Geniostoma leenhoutsii,Geniostoma leenhoutsii,546423-1,546423-1,Species,25.0332498550415,44.27599811553955,25.4811248779297,24.38487434387205,4963.00146484375,21.0126247406006,1568.557861328125,971.154632568358,326.0110778808595,330.008743286133,5.27266669273376,332.7583312988285,52.3125,1053.75,1634.25,64.40625,26.9375,-5.139889,142.513278,1,[1]
68,Geniostoma lorencianum,Geniostoma lorencianum,77184257-1,77184257-1,Species,18.85325050354,145.725250244141,20.6487503051758,17.0270004272461,3032.89184570312,21.6022491455078,965.002502441406,590.425476074219,325.736846923828,832.72998046875,9.18306922912598,377.155548095703,57.5416679382324,566.458312988281,4626.66650390625,80.125,33.25,22.085475000000002,-159.6048915,15,"[15, 3]"
69,Geniostoma lydgatei,Geniostoma lydgatei,77184188-1,77184188-1,Species,21.5594997406006,134.29475402832,23.1912498474121,19.847749710083,2323.85107421875,21.9037494659424,711.994262695312,447.154998779297,376.011077880859,331.545013427734,4.51497507095337,416.555541992188,56.2666664123535,566.458312988281,3503.5,80.125,33.5625,22.1076,-159.5,1,"[1, 15]"
70,Geniostoma novae-caledoniae,Geniostoma novae-caledoniae,546439-1,546439-1,Species,21.1182498931885,237.737503051758,24.0699996948242,17.9475002288818,1935.69555664062,51.9720001220703,885.607482910156,223.279373168945,205.1343460083005,379.334991455078,5.02519702911377,241.465278625488,52.84134674072265,411.21875,1226.8333129882799,70.5,23.5,-21.450555,165.564865,1,[1]
71,Geniostoma petiolosum,Geniostoma petiolosum,546449-1,546449-1,Species,19.5044994354248,209.776000976562,22.3145008087158,16.9360008239746,1593.53405761719,17.4939994812012,504.795989990234,340.434753417969,1.15512466430664,4.09000015258789,0.286062240600586,,,,,,,-31.5557515,159.086435,0,[0]
72,Geniostoma pumilum,Geniostoma pumilum,77183839-1,77183839-1,Species,18.85325050354,145.725250244141,20.6487503051758,17.0270004272461,3032.89184570312,21.6022491455078,965.002502441406,590.425476074219,459.947357177734,832.72998046875,9.18306922912598,353.527770996094,54.8205146789551,725.717956542969,3503.5,86.8461532592773,33.5625,22.0834,-159.502,15,[15]
73,Geniostoma randianum,Geniostoma randianum,546457-1,546457-1,Species,13.4545001983643,48.9172515869141,13.946249961853,12.7104997634888,3372.1326904296848,33.921501159668,1211.36694335938,461.282989501953,2593.80322265625,2221.38500976562,10.5810060501099,497.5,52.4583320617676,736.625,452.0,117.375,29.5625,-9.158333500000001,147.75,15,"[15, 1]"
74,Geniostoma trichostylum,Geniostoma trichostylum,546476-1,546476-1,Species,23.7169990539551,39.7822494506836,24.1107501983643,23.1277503967285,3711.02075195312,10.5030002593994,1025.08251953125,833.788757324219,427.060943603516,451.029998779297,6.17545461654663,464.155548095703,52.7111129760742,1682.62219238281,1296.5,80.7333297729492,29.4375,-6.416667,155.666667,1,[1]
75,Geniostoma triflorum,Geniostoma triflorum,77184007-1,77184007-1,Species,22.0867500305176,113.375503540039,23.4764995574951,20.6469993591309,881.210754394531,58.6187515258789,383.382263183594,79.6482467651367,140.675903320312,358.182495117188,7.08210897445679,388.166656494141,57.6666679382324,450.0,3635.75,77.0,31.3125,21.0928,-156.8725,3,[3]
76,Geniostoma venosum,Geniostoma venosum,77184074-1,77184074-1,Species,18.8077507019043,113.4813766479495,20.1967506408691,17.3612499237061,2588.5277099609348,23.200874328613303,804.1212463378905,479.6671295166015,841.4584274292005,800.222473144531,9.67578506469727,390.75,57.2888870239258,531.6875,2689.25,70.4000015258789,33.625,20.749525,-156.14600000000002,15,"[1, 15]"
77,Geniostoma vestitum,Geniostoma vestitum,546479-1,546479-1,Species,21.4787502288818,237.634002685547,24.3104991912842,18.2842502593994,1993.71374511719,52.7017517089844,912.052490234375,239.417007446289,253.204986572266,323.942504882812,5.38755750656128,247.89582824707,53.0444450378418,439.041656494141,1195.5,70.0,23.375,-21.183333,165.26778,1,"[1, 14, 0]"
78,Geniostoma waialealae,Geniostoma waialealae,77183699-1,77183699-1,Species,18.85325050354,145.725250244141,20.6487503051758,17.0270004272461,3032.89184570312,21.6022491455078,965.002502441406,590.425476074219,376.011077880859,832.72998046875,9.18306922912598,416.555541992188,56.2666664123535,617.799987792969,3503.5,81.4000015258789,33.5625,22.126665000000003,-159.57150000000001,15,"[1, 15]"
79,Geniostoma waiolani,Geniostoma waiolani,77184146-1,77184146-1,Species,22.0867500305176,113.375503540039,23.4764995574951,20.6469993591309,881.210754394531,58.6187515258789,383.382263183594,79.6482467651367,140.675903320312,358.182495117188,7.08210897445679,388.166656494141,57.6666679382324,450.0,3635.75,77.0,31.3125,21.1167,-156.883,3,[3]
80,Geniostoma weinlandii,Geniostoma weinlandii,546482-1,546482-1,Species,24.66475009918215,67.3217506408691,25.2301254272461,23.7707500457764,3190.18310546875,14.168999671936,984.281494140625,617.984008789062,212.15927886962902,385.089996337891,4.80223059654236,340.28125,52.5104179382324,696.729187011719,1087.5,71.4375,28.9375,-6.581665,146.9168335,1,"[1, 15]"
81,Spigelia faveolata,Spigelia faveolata,330742-2,330742-2,Species,18.4372501373291,21.89974975585935,18.7236247062683,18.184249877929652,5385.360595703125,15.862500190734846,1638.9736328125,1149.494384765624,1601.0650329589844,1555.432495117185,9.234352588653564,432.479156494141,52.2916660308838,810.4270935058595,1498.625,99.78125,29.40625,2.816667,-77.30000000000001,15,"[1, 15]"
82,Logania albiflora,Logania albiflora,546584-1,546584-1,Species,15.7072496414185,400.36399841308605,20.6895008087158,10.2740001678467,942.664489746094,24.838249206543,319.8008728027345,166.869247436523,337.20498657226597,328.297485351562,2.26770055294037,208.444442749023,53.5,359.185180664062,1121.5,59.375,18.875,-33.584256499999995,150.686004,15,"[15, 14, 6, 0, 7, 4, 11]"
83,Logania archeri,Logania archeri,984031-1,984031-1,Species,16.3427505493164,360.980255126953,20.8232498168945,11.6155004501343,409.222503662109,21.7255001068115,128.901504516602,81.3034973144531,235.260391235352,241.912506103516,0.228737220168114,141.02082824707,70.7083358764648,228.375,2919.75,41.625,14.4375,-33.1,122.4,7,[7]
84,Logania buxifolia,Logania buxifolia,546589-1,546589-1,Species,15.954749584198,314.1541290283205,19.8584995269775,11.78975009918215,439.702758789062,29.881750106811552,147.7493743896485,73.8262481689453,131.038787841797,159.93875122070352,0.631324529647827,92.25,67.4791641235352,199.45832824707,2159.625,45.3125,14.8125,-33.6750165,120.0458055,7,"[7, 9, 5, 8, 0]"
85,Logania cordifolia,Logania cordifolia,546596-1,546596-1,Species,19.6232490539551,468.133239746094,25.0657501220703,13.0970001220703,751.908020019531,51.1662483215332,332.695739746094,83.3785018920898,497.545715332031,493.577514648438,1.65699052810669,143.8125,60.6666679382324,212.6875,630.5,37.8125,18.5,-25.156765,149.1614,14,"[6, 14]"
86,Logania crassifolia,Logania crassifolia,546597-1,546597-1,Species,15.8719997406006,204.550506591797,18.6725006103516,13.2222499847412,513.793029785156,59.2949981689453,241.371505737305,50.1287498474121,4.18836545944214,8.14000034332275,0.292871683835983,172.0,71.1333312988281,529.851867675781,2819.0,57.4166679382324,14.875,-35.27219,136.96544,9,"[9, 0, 7, 8]"
87,Logania diffusa,Logania diffusa,906553-1,906553-1,Species,20.1655006408691,414.318237304688,24.8850002288818,14.2430000305176,711.642272949219,50.1042518615723,302.6142578125,83.1647491455078,513.531860351562,541.407470703125,4.03211402893066,146.3125,61.9375,250.625,866.75,44.0,19.0,-23.749212,149.113597,14,"[14, 6]"
88,Logania fasciculata,Logania fasciculata,546602-1,546602-1,Species,16.4497509002686,231.558502197266,19.3387508392334,13.2910003662109,607.757263183594,44.2302513122559,245.358505249023,75.2462463378906,14.3711910247803,20.1924991607666,0.433054089546204,143.800003051758,63.0,312.625,2109.5,49.125,15.5625,-33.937886,121.298611,7,"[7, 9, 0, 5]"
89,Logania granitica,Logania granitica,77085016-1,77085016-1,Species,9.27025032043457,493.712493896484,15.6347503662109,2.86275005340576,881.890014648438,14.3035001754761,249.207244873047,173.631500244141,941.73681640625,1196.55505371094,5.61605358123779,215.533340454102,55.8222236633301,392.145843505859,396.75,60.5625,19.5,-35.72,148.966667,15,[15]
90,Logania insularis,Logania insularis,546608-1,546608-1,Species,15.3924999237061,215.008499145508,18.3257503509521,12.808500289917,601.823486328125,62.1775016784668,289.291748046875,54.8027496337891,44.6398887634277,36.0499992370605,0.714567899703979,260.722229003906,61.5925941467285,641.296325683594,2121.25,59.4444427490234,19.0,-35.763678999999996,136.59737,9,[9]
91,Logania linifolia,Logania linifolia,546611-1,546611-1,Species,15.4425001144409,408.997253417969,20.1742496490479,10.2122497558594,463.366485595703,40.4077491760254,179.804244995117,54.0769996643066,79.2714691162109,77.5074996948242,0.279049664735794,158.97917175293,73.0416641235352,261.625,3246.25,37.375,16.4166660308838,-35.77814,140.13954,7,"[7, 9, 15, 5, 8, 0]"
92,Logania litoralis,Logania litoralis,984037-1,984037-1,Species,20.6007499694824,284.805511474609,24.3102493286133,17.3487491607666,370.70849609375,92.5187530517578,220.858245849609,16.1762504577637,38.4570655822754,17.2425003051758,0.39029261469841,133.703704833984,68.9555549621582,174.30000305175798,2199.0,47.75,12.75,-27.716667,114.133333,0,"[0, 4, 6, 8]"
93,Logania micrantha,Logania micrantha,546613-1,546613-1,Species,15.90437507629395,347.11125183105503,19.84962463378905,10.8581247329712,478.8817443847655,37.984500885009794,171.979507446289,69.5662498474121,244.329635620117,260.74375915527355,0.6342122852802274,106.07291793823251,64.619441986084,242.04167175293,2236.75,48.5625,14.46875,-33.7016785,119.8865275,7,"[9, 7, 8, 4]"
94,Logania minor,Logania minor,984033-1,984033-1,Species,15.9537496566772,279.581756591797,19.5440006256104,12.1564998626709,473.003616333008,51.6063747406006,206.957374572754,50.2265014648438,47.14404296875,50.5074996948242,0.252071917057037,154.6840286254885,75.1502990722656,361.59721374511753,2619.375,43.564104080200195,15.02083349227905,-35.066036,137.182435,9,"[8, 9, 0, 7]"
95,Logania nanophylla,Logania nanophylla,984032-1,984032-1,Species,17.37112522125245,444.46025085449196,22.874250411987347,11.50362491607665,345.8062438964845,17.71024990081785,104.42337417602499,69.69025039672849,330.080322265625,322.0274963378905,0.4286237955093385,91.5208358764648,74.5833358764648,331.375,2081.25,47.0,14.0,-32.0,122.35,5,"[5, 7]"
96,Logania ovata,Logania ovata,546617-1,546617-1,Species,15.4302501678467,246.485504150391,18.5685005187988,11.9792499542236,533.927490234375,55.9830017089844,248.176498413086,54.0945014953613,45.8088645935059,53.9599990844727,0.539584159851074,203.899993896484,65.5111083984375,417.333343505859,2469.0,49.8125,15.8125,-35.71817,137.101117,9,"[9, 8, 0, 7, 5, 4, 15]"
97,Logania perryana,Logania perryana,984035-1,984035-1,Species,17.4759998321533,429.705505371094,22.8544998168945,11.7534999847412,327.177001953125,14.7030000686646,95.7602462768555,69.1587524414062,302.634338378906,278.447509765625,0.463158518075943,96.9444427490234,74.7555541992188,279.399993896484,2377.5,47.0666656494141,15.6875,-32.1528,121.7319,5,"[5, 7, 8]"
98,Logania recurva,Logania recurva,546620-1,546620-1,Species,14.3112497329712,386.828002929688,19.0655002593994,9.16600036621094,753.271240234375,53.601749420166,328.671508789062,75.5924987792969,230.257614135742,366.897491455078,2.24532079696655,184.41667175293,59.1111106872559,490.583343505859,3146.0,62.4285697937012,17.4375,-35.0186,138.71218,9,"[9, 7]"
99,Logania saxatilis,Logania saxatilis,984036-1,984036-1,Species,15.3062496185303,408.848510742188,20.7407493591309,9.38449954986572,662.766479492188,51.5597496032715,284.271759033203,67.8710021972656,307.38642883300747,366.897491455078,2.1822521686554,175.595245361328,60.7575759887695,441.818176269531,3120.5,60.0,17.375,-34.860143,138.6519895,9,"[7, 9, 5, 4]"
100,Logania scabrella,Logania scabrella,984034-1,984034-1,Species,14.7744998931885,223.499496459961,17.9479999542236,12.0767498016357,693.735229492188,62.7372512817383,334.611511230469,63.0987510681152,103.927978515625,138.0625,0.929398119449615,272.0625,58.3333320617676,580.333312988281,3728.0,67.0625,19.03125,-35.9125565,136.79679499999997,9,[9]
101,Logania stenophylla,Logania stenophylla,546624-1,546624-1,Species,16.2250003814697,323.498992919922,20.2612495422363,11.8602504730225,413.065246582031,23.601749420166,130.754257202148,75.6447525024414,176.196670532227,166.217498779297,0.230239868164062,110.645835876465,69.1041641235352,199.45832824707,2432.5,42.125,14.8125,-33.405167,122.057039,7,"[7, 5, 9]"
102,Logania sylvicola,Logania sylvicola,77108596-1,77108596-1,Species,15.3275003433228,409.69163513183605,20.6987495422363,10.38587474823,598.116027832031,66.526123046875,298.610504150391,44.4835014343262,278.869812011719,271.80250549316395,0.8021448850631715,145.73957824707,62.1041660308838,305.69792175292946,2986.875,55.53125,13.59375,-33.55,116.65,9,[9]
103,Logania vaginalis,Logania vaginalis,546627-1,546627-1,Species,16.1625003814697,253.210998535156,19.3387508392334,13.2917499542236,931.603515625,73.6407470703125,459.351257324219,51.1747512817383,27.0055408477783,42.6150016784668,0.695425093173981,178.25,63.0,444.766662597656,2651.5,69.5,15.125,-34.024444,115.8,9,"[7, 9, 8, 0]"
104,Mitrasacme aggregata,Mitrasacme aggregata,990993-1,990993-1,Species,26.89925003051755,151.392242431641,28.712499618530302,24.7707500457764,1536.44799804688,107.4871253967285,1007.80297851562,5.2332501411438,51.644044876098604,43.6837501525879,0.5515561401844025,133.91667175293,59.6770820617676,191.622222900391,4302.125,29.375,16.6875,-12.5027635,132.7052465,3,[3]
105,Mitrasacme albomarginata,Mitrasacme albomarginata,546631-1,546631-1,Species,26.3938751220703,71.62762451171875,27.19387435913085,25.33387470245365,2022.1013793945299,64.71500015258785,948.374755859375,150.179496765137,11.542936563491805,18.762500047683716,0.11619006842374821,186.22917175293,57.6076374053955,381.27430725097645,4994.75,50.8958339691162,25.59375,-8.566456500000001,140.803065,3,"[2, 3]"
106,Mitrasacme alsinoides,Mitrasacme alsinoides,546632-1,546632-1,Species,18.6502494812012,373.061248779297,22.9594993591309,13.3652496337891,1198.28125,37.3737487792969,444.253753662109,155.273498535156,57.4986152648926,65.0,0.964934825897217,201.3125,53.6041679382324,307.75,1817.75,56.4375,19.5,-29.748614,152.692795,14,"[14, 15, 0, 3, 6]"
107,Mitrasacme ambigua,Mitrasacme ambigua,546633-1,546633-1,Species,26.2985000610352,253.106506347656,28.9584999084473,22.5632495880127,1169.87194824219,111.338752746582,767.703002929688,5.95025014877319,207.42658996582,208.572494506836,0.881826639175415,81.4375,63.1041679382324,112.958335876465,2682.25,25.1875,15.75,-14.95,132.28067,3,"[3, 6]"
108,Mitrasacme brachystemonea,Mitrasacme brachystemonea,546638-1,546638-1,Species,25.201000213623,199.319244384766,27.1772499084473,22.6574993133545,1109.408203125,114.175750732422,716.131774902344,16.7514991760254,146.204986572266,151.884994506836,0.707324683666229,76.6111145019531,60.8333320617676,102.577774047852,4125.25,23.0,14.8125,-15.388611,144.583333,3,"[6, 3, 11, 0]"
109,Mitrasacme clarksonii,Mitrasacme clarksonii,990991-1,990991-1,Species,26.005500793457,108.018753051758,27.1490001678467,24.4594993591309,1848.39453125,94.5917510986328,1107.94995117188,44.0987510681152,4.95567846298218,2.32750010490417,0.0990006327629089,127.484848022461,54.9166679382324,273.128204345703,7601.0,37.8333320617676,24.875,-10.9867515,142.673058,0,"[0, 3]"
110,Mitrasacme connata,Mitrasacme connata,546646-1,546646-1,Species,26.7252502441406,240.742874145508,29.1117496490479,23.2492504119873,1319.87377929688,109.920497894287,875.564758300781,5.75675010681152,106.725761413574,111.985000610352,0.62716668844223,88.2291641235352,61.8125,116.25,3349.125,27.2666664123535,16.0625,-14.101980000000001,132.428695,3,"[11, 3, 4, 6, 2, 0]"
111,Mitrasacme elata,Mitrasacme elata,546654-1,546654-1,Species,26.7512493133545,131.171249389648,28.1192502975464,24.742000579834,1493.2019653320299,99.8844985961914,925.669494628906,10.7932500839233,22.8088645935059,29.57625007629395,0.462259113788605,137.185188293457,58.2291679382324,200.487182617188,4618.5,30.9230766296387,17.375,-11.705255,132.59174000000002,3,"[3, 1, 0, 2]"
112,Mitrasacme epigaea,Mitrasacme epigaea,990987-1,990987-1,Species,27.5807495117188,273.201263427734,30.7094993591309,23.3309993743896,918.380249023438,113.40650177002,622.919006347656,5.03224992752075,123.614959716797,142.317504882812,1.14819288253784,84.4166641235352,65.9583358764648,96.4583358764648,2271.5,27.4375,16.1875,-15.783333,128.38557,6,"[3, 6]"
113,Mitrasacme exserta,Mitrasacme exserta,546656-1,546656-1,Species,26.9064998626709,239.966995239258,29.2332496643066,23.7724990844727,1368.41149902344,110.634002685547,883.018493652344,5.69675016403198,78.3324127197266,81.432502746582,0.583642661571503,90.75,63.3125,119.875,3568.5,27.6666660308838,16.0625,-14.11514,130.72346,3,"[3, 6, 4]"
114,Mitrasacme floribunda,Mitrasacme floribunda,990989-1,990989-1,Species,26.90162563323975,161.77099609375,29.1082496643066,24.419750213623,1594.8974609375,109.448753356934,1045.2830200195299,4.583874940872195,134.637115478516,135.615005493164,1.65400898456573,151.3125,59.7916660308838,191.622222900391,3801.625,29.875,15.96875,-12.799945000000001,132.91107449999998,3,[3]
115,Mitrasacme foliosa,Mitrasacme foliosa,546657-1,546657-1,Species,26.0652503967285,207.70524597168,28.236499786377,22.75950050354,1388.44250488281,109.025497436523,905.144775390625,9.18200016021729,347.5595703125,336.420013427734,0.971016764640808,89.3333358764648,64.2083358764648,123.958335876465,3647.25,28.5,16.25,-15.133333,125.841944,3,"[3, 6]"
116,Mitrasacme galbina,Mitrasacme galbina,990997-1,990997-1,Species,25.8474998474121,255.894744873047,28.636999130249,22.2197494506836,1105.41479492188,113.955749511719,737.161987304688,6.67749977111816,374.875335693359,376.802490234375,0.968162536621094,77.375,64.4583358764648,112.729164123535,2970.5,28.5,16.6875,-15.975556,125.838889,3,"[3, 6, 9]"
117,Mitrasacme geniculosa,Mitrasacme geniculosa,990995-1,990995-1,Species,26.9112491607666,172.905746459961,29.4020004272461,23.8857498168945,1478.30944824219,110.008003234863,955.982238769531,4.91125011444092,132.490310668945,135.615005493164,1.45533061027527,120.0,59.8125,156.875,4051.75,28.25,15.75,-12.947226,132.82,3,[3]
118,Mitrasacme gentianea,Mitrasacme gentianea,546659-1,546659-1,Species,26.9108743667603,199.20524597168,28.974250793457,24.013625144958503,1393.57373046875,109.0419998168945,931.488525390625,5.47149991989136,136.199447631836,111.985000610352,0.7886514961719511,103.45833206176749,62.3333320617676,144.6277770996095,3572.875,30.4375,16.25,-14.15477,130.741328,3,"[3, 6]"
119,Mitrasacme glaucescens,Mitrasacme glaucescens,990981-1,990981-1,Species,26.4942502975464,202.905502319336,29.1082496643066,23.2492504119873,1393.17944335938,109.81224822998,914.446472167969,5.15124988555908,189.847640991211,190.0487442016605,0.996784150600433,96.4583358764648,61.0416679382324,131.64582824707,3684.0,27.5,15.75,-13.513893,132.55744449999997,3,"[3, 6]"
120,Mitrasacme graminea,Mitrasacme graminea,990978-1,990978-1,Species,26.4424991607666,216.359878540039,28.55449962615965,23.331000328064,1391.75549316406,112.536750793457,909.9048767089845,7.93324995040894,246.340721130371,243.80374908447249,1.49490332603455,107.083335876465,64.1145839691162,131.20832824707,3513.75,27.0625,16.0625,-15.033333,125.70172199999999,3,[3]
121,Mitrasacme hispida,Mitrasacme hispida,546661-1,546661-1,Species,26.8974990844727,245.585754394531,28.9395008087158,23.3842506408691,850.721984863281,121.638496398926,625.863220214844,4.94199991226196,50.1274223327637,57.4625015258789,0.583994269371033,76.4285736083984,66.6428604125977,119.583335876465,3172.75,27.875,16.625,-16.597305,124.966667,6,"[6, 3]"
122,Mitrasacme inornata,Mitrasacme inornata,990992-1,990992-1,Species,26.8159999847412,130.69450378418,28.1322498321533,24.7887496948242,1458.23352050781,104.897750854492,901.623474121094,8.11124992370605,15.2714681625366,16.7350006103516,0.341368496417999,141.633331298828,57.9444427490234,233.722229003906,4688.5,25.769229888916,17.25,-11.55755,132.55174,3,[3]
123,Mitrasacme katjarranka,Mitrasacme katjarranka,77148781-1,77148781-1,Species,25.35837459564205,611.0462646484375,32.1178741455078,16.71287441253665,330.228012084961,84.515251159668,181.472373962402,17.68512535095215,401.9847717285155,393.758758544922,0.251894064247608,36.03125,78.0,87.1354179382324,2900.5,17.53125,15.875,-23.85,125.1,4,[4]
124,Mitrasacme kenneallyi,Mitrasacme kenneallyi,990996-1,990996-1,Species,26.657375335693352,200.2957458496095,28.672249794006348,23.39424991607665,1213.969421386715,112.909248352051,831.862365722656,6.85774993896484,172.2783889770505,170.7350006103515,0.674024045467377,84.00320434570315,64.4854164123535,121.416664123535,3695.5,25.4375,16.25,-14.8653025,126.201658,3,"[3, 6]"
125,Mitrasacme laevis,Mitrasacme laevis,546664-1,546664-1,Species,26.8159999847412,151.392242431641,28.4912490844727,24.742000579834,1495.52795410156,106.739501953125,953.208984375,6.12825012207031,34.5844879150391,33.7900009155273,0.514336705207825,124.604164123535,59.3333320617676,175.0625,4496.75,28.625,16.3125,-12.58093,132.718819,3,"[3, 6]"
126,Mitrasacme laricifolia,Mitrasacme laricifolia,546665-1,546665-1,Species,26.4085006713867,235.329254150391,29.1772499084473,23.0847492218018,1191.71997070312,112.420249938965,810.485473632812,6.70450019836426,213.875350952148,206.425003051758,0.768360733985901,83.4166641235352,63.4791679382324,117.1875,3180.0,25.9375,15.9375,-15.030596,128.28,3,"[3, 6, 0, 9]"
127,Mitrasacme latiflora,Mitrasacme latiflora,546666-1,546666-1,Species,26.528624534606948,225.027496337891,29.05562591552735,23.17987442016605,1384.640441894535,108.8734970092775,905.5936279296875,5.59849977493286,198.387817382812,211.680000305176,0.6426074504852295,82.8125,61.3541679382324,110.0625,3579.75,27.2666664123535,15.78125,-13.826605,132.23695500000002,3,[3]
128,Mitrasacme laxiceps,Mitrasacme laxiceps,990999-1,990999-1,Species,26.5074996948242,207.70524597168,28.636999130249,23.1102504730225,1215.91455078125,111.189498901367,822.1259765625,7.61924982070923,279.196685791016,256.285003662109,0.81753396987915,85.7291641235352,63.477678298950195,123.416664123535,3611.5,24.96875,16.25,-14.94727,126.25,3,"[3, 6, 0]"
129,Mitrasacme lutea,Mitrasacme lutea,546669-1,546669-1,Species,26.7415008544922,280.481506347656,30.1879997253418,23.1047496795654,755.480773925781,123.038497924805,557.528747558594,7.25524997711182,55.1634330749512,71.4375,0.286748081445694,60.8125,69.4375,90.5,3611.5,27.34375,17.1875,-17.829212,124.385645,6,"[6, 3]"
130,Mitrasacme maritima,Mitrasacme maritima,990994-1,990994-1,Species,25.6660003662109,114.203750610352,26.8857498168945,24.070499420166,1901.27600097656,90.7095031738281,1121.39001464844,58.4799995422363,30.5152359008789,38.2050018310547,0.486088931560516,98.2708358764648,55.7708320617676,168.66667175293,8585.125,33.6875,20.5625,-11.17,142.796944,3,[3]
131,Mitrasacme micrantha,Mitrasacme micrantha,546673-1,546673-1,Species,26.638500213623,277.613250732422,29.8282508850098,22.4657497406006,1028.65246582031,112.03099822998,686.66650390625,5.56300020217896,158.515228271484,151.850006103516,0.698038280010223,74.625,65.0625,90.5208358764648,2524.5,25.375,15.1875,-15.29504,132.1928,3,"[4, 3, 6, 11]"
132,Mitrasacme multicaulis,Mitrasacme multicaulis,546675-1,546675-1,Species,26.4747505187988,191.81950378418,28.7080001831055,23.7310009002686,1393.17944335938,108.455253601074,902.522766113281,6.52475023269653,49.6786689758301,56.0924987792969,0.51605498790741,91.6875,60.2083320617676,129.64582824707,4142.25,27.1875,15.9375,-13.2,132.968822,3,"[3, 6, 0]"
133,Mitrasacme neldneri,Mitrasacme neldneri,990990-1,990990-1,Species,27.0162506103516,178.522506713867,29.2660007476807,24.4155006408691,1332.82348632812,122.876747131348,964.163024902344,5.40175008773804,42.6786689758301,54.8450012207031,0.0979367569088936,57.7708320617676,61.5833320617676,98.3125,5241.5,21.5625,14.25,-14.775051000000001,142.173066,3,[3]
134,Mitrasacme nidulifera,Mitrasacme nidulifera,990984-1,990984-1,Species,26.86837577819825,250.680755615234,29.2377490997314,23.2530002593994,1167.34362792969,112.09000015258749,785.759124755859,4.95275020599365,133.5637130737305,134.94000244140602,1.2167273759841901,95.6666679382324,64.2083358764648,130.79167175293,2655.25,25.4375,15.59375,-14.905561500000001,129.8024505,3,"[3, 6]"
135,Mitrasacme nummularia,Mitrasacme nummularia,546680-1,546680-1,Species,26.8197498321533,174.270751953125,28.7507495880127,24.1704998016357,1486.98547363281,108.750747680664,964.861022949219,6.07474994659424,71.5955657958984,83.504997253418,0.728669345378876,125.487182617188,60.1041679382324,175.22917175293,3797.5,29.875,16.625,-13.356825,131.031119,3,"[3, 6, 0, 4, 14, 11]"
136,Mitrasacme oasena,Mitrasacme oasena,990977-1,990977-1,Species,20.1025009155273,264.109741210938,23.3527507781982,15.6587495803833,1643.01794433594,73.1315002441406,876.669494628906,96.1687469482422,679.83935546875,646.715026855469,2.55627703666687,180.066665649414,57.0208320617676,240.85417175293,1860.5,53.9375,20.3125,-17.382778,145.465836,11,"[14, 11, 4, 3, 2, 6, 0]"
137,Mitrasacme paludosa,Mitrasacme paludosa,546681-1,546681-1,Species,19.8649997711182,356.877502441406,24.2544994354248,14.6142501831055,1097.12878417969,39.0457496643066,386.89599609375,137.328750610352,73.2354583740234,77.2149963378906,0.827138543128967,172.83332824707,56.0625,276.0,1843.0,47.8125,18.4375,-27.490069,151.935215,14,"[14, 6, 0, 15, 3, 1, 2, 11]"
138,Mitrasacme patens,Mitrasacme patens,990988-1,990988-1,Species,26.2642498016357,199.021255493164,28.5747509002686,22.7407493591309,1116.59924316406,114.654251098633,773.208740234375,9.89974975585938,66.9445972442627,79.15875244140625,0.25538344681263,71.6145820617676,60.5104179382324,102.645835876465,4426.5,22.4375,14.375,-15.2239815,143.9745835,3,"[3, 6, 0]"
139,Mitrasacme phascoides,Mitrasacme phascoides,546686-1,546686-1,Species,25.9104995727539,191.794998168945,28.0057506561279,23.05299949646,1250.27722167969,113.287002563477,830.202270507812,11.6820001602173,90.9169006347656,91.3424987792969,0.550312340259552,79.1041641235352,59.8666648864746,109.395835876465,3991.0,24.9375,14.4375,-15.081389,143.506673,3,"[3, 11]"
140,Mitrasacme polymorpha,Mitrasacme polymorpha,546689-1,546689-1,Species,16.0764999389648,354.509002685547,20.5002498626709,11.4862499237061,1084.49304199219,22.107250213623,339.768249511719,196.47900390625,127.445983886719,146.335006713867,1.78344082832336,207.757568359375,52.8888893127441,371.25,1205.25,61.7000007629395,18.625,-33.82177,150.718196,15,"[14, 0, 15, 11, 6, 7, 3, 4]"
141,Mitrasacme prolifera,Mitrasacme prolifera,546690-1,546690-1,Species,22.76550006866455,295.839614868164,26.2582492828369,18.6692504882812,1444.114501953125,89.28425216674805,789.295104980469,73.87674713134766,82.25623321533205,53.42250061035155,0.8502941131591795,160.622222900391,59.7708320617676,220.03125,2362.25,41.1333351135254,19.1875,-13.79718,139.35000000000002,3,"[3, 14, 0, 11, 2, 6, 21, 22, 25]"
142,Mitrasacme retroloba,Mitrasacme retroloba,990983-1,990983-1,Species,26.5074996948242,197.645492553711,28.7269992828369,23.4780006408691,1439.44799804688,109.333251953125,931.369262695312,6.15000009536743,175.634353637695,171.604995727539,0.745353817939758,118.270835876465,61.8333320617676,156.875,3721.0,28.5625,16.0625,-14.00201,132.190784,3,"[3, 6]"
143,Mitrasacme scopata,Mitrasacme scopata,990985-1,990985-1,Species,24.9907493591309,232.4368743896485,27.733625411987298,21.552124977111802,1261.282104492185,113.4395027160645,856.944519042969,6.47737503051758,403.1454315185545,445.64625549316395,1.495261907577515,89.3333358764648,64.8333320617676,118.979164123535,3756.625,28.6875,15.6875,-16.019477000000002,125.3415545,3,[3]
144,Mitrasacme scrithicola,Mitrasacme scrithicola,990982-1,990982-1,Species,26.788749694824197,264.491241455078,29.3174991607666,22.832250595092752,1177.8298950195299,112.420249938965,782.667266845703,5.10675001144409,167.060943603516,148.95999908447249,1.06683099269867,84.6041641235352,63.4791679382324,107.0,2655.25,26.46875,15.9375,-14.8319715,131.1095905,3,"[3, 6, 0]"
145,Mitrasacme secedens,Mitrasacme secedens,990998-1,990998-1,Species,26.86549949646,239.966995239258,28.7269992828369,23.1842498779297,1334.79248046875,109.520500183105,881.525024414062,5.65075016021729,143.033233642578,174.482498168945,0.653542876243591,96.3125,63.5208320617676,123.270835876465,4052.25,27.8125,15.4375,-13.9408,130.911075,3,"[3, 6]"
146,Mitrasacme serpyllifolia,Mitrasacme serpyllifolia,546696-1,546696-1,Species,11.55774974823,404.508758544922,17.1035003662109,5.87050008773804,977.400512695312,20.8360004425049,292.034484863281,189.646499633789,736.772827148438,752.025024414062,2.46055960655212,213.6875,52.8125,485.933319091797,721.25,69.3125,20.25,-36.747055,149.50125,15,"[15, 14, 27, 9, 16, 0]"
147,Mitrasacme squamigera,Mitrasacme squamigera,990980-1,990980-1,Species,26.4892501831055,244.091003417969,28.7169990539551,23.2164993286133,1260.333251953125,110.634002685547,770.183471679688,8.228625059127815,140.880889892578,144.6212539672855,0.553938031196594,79.1041641235352,61.3958320617676,109.395835876465,2964.0,24.8125,15.59375,-14.071874999999999,135.86715149999998,3,"[3, 6]"
148,Mitrasacme stellata,Mitrasacme stellata,546701-1,546701-1,Species,25.676249504089398,167.485000610352,27.24437522888185,23.197000503540053,1645.68249511719,109.569000244141,1064.03430175781,15.7797498703003,62.1994476318359,56.6824989318848,0.583642661571503,100.541664123535,57.8541679382324,161.95832824707,4725.375,30.625,17.0625,-13.768654999999999,143.0630595,3,"[3, 0, 2, 1, 6]"
149,Mitrasacme subvolubilis,Mitrasacme subvolubilis,546702-1,546702-1,Species,27.2712497711182,156.212493896484,28.9987506866455,24.7985000610352,1593.94396972656,106.061248779297,990.513244628906,5.68249988555908,31.867036819458,33.7900009155273,0.413449168205261,110.9375,60.2820510864258,170.5625,4014.0,30.6875,16.0625,-12.9,131.0284,3,"[3, 6]"
150,Mitrasacme thedae,Mitrasacme thedae,77153352-1,77153352-1,Species,26.6720008850098,218.741744995117,29.2842502593994,23.519250869751,1326.4677734375,107.910499572754,864.141235351562,8.23349952697754,245.847640991211,231.322494506836,1.09094393253326,111.583335876465,63.3125,130.79167175293,3173.25,25.375,17.0,-14.79,126.5,3,[3]
151,Mitrasacme troglodytica,Mitrasacme troglodytica,990979-1,990979-1,Species,27.1660003662109,161.77099609375,29.1082496643066,24.7707500457764,1595.42919921875,109.741249084473,1048.93298339844,4.36875009536743,134.637115478516,86.9400024414062,1.65400898456573,152.8125,59.2291679382324,217.95832824707,3753.25,29.875,16.75,-12.797226,132.918823,3,[3]
152,Mitreola pedicellata,Mitreola pedicellata,546719-1,546719-1,Species,15.671374797820999,748.8353881835935,25.07387447357175,5.536624908447266,1521.380615234375,62.1101245880127,706.493621826172,104.03837585449219,665.6703491210935,727.767486572266,7.173580169677734,251.9151763916015,59.03125,264.83332824707054,563.375,56.11249923706055,24.59375,29.439999999999998,109.19999999999999,14,"[14, 11]"
153,Mitreola petiolata,Mitreola petiolata,546721-1,546721-1,Species,21.620625495910602,430.53288269043003,27.0820007324219,15.985125541687,1439.1884765625,45.92012405395505,578.757873535156,177.960754394531,76.7603874206543,77.5150032043457,0.385057777166367,277.958343505859,57.023811340332,287.21875,1356.5,48.9375,22.65625,28.242449999999998,-84.96915,14,"[3, 14, 4, 2, 0, 6, 11, 1, 15, 12]"
154,Mitreola reticulata,Mitreola reticulata,546723-1,546723-1,Species,20.6192493438721,409.715240478516,25.2177505493164,14.7957496643066,1823.97351074219,74.672248840332,899.131774902344,66.2484970092773,724.243774414062,716.304992675781,7.70579481124878,212.39582824707,55.5416679382324,259.604156494141,1842.0,59.3125,24.75,20.728889,104.895833,11,[11]
155,Mitreola sessilifolia,Mitreola sessilifolia,30219651-2,30219651-2,Species,19.8675003051758,590.214233398438,27.0537490844727,12.0202503204346,1470.71130371094,24.6809997558594,557.5625,277.784484863281,19.5013847351074,20.8875007629395,0.127301007509232,608.666687011719,52.22708320617675,326.311553955078,1454.25,39.2708339691162,19.0625,30.406988,-85.3694,14,"[14, 3, 2, 1]"
156,Mitreola sphaerocarpa,Mitreola sphaerocarpa,546726-1,546726-1,Species,22.4476251602173,25.3487491607666,22.8028745651245,22.1606254577637,4227.701049804685,17.2339992523193,1272.52111816406,829.576599121094,495.659271240234,734.5062561035155,8.45150423049929,354.5,49.875,1025.20834350586,1348.875,64.9375,27.15625,4.083333,114.9249835,1,[1]
157,Mitreola turgida,Mitreola turgida,546729-1,546729-1,Species,26.7674999237061,112.087249755859,27.838249206543,25.1040000915527,1549.73022460938,127.106498718262,1153.32971191406,4.4520001411438,20.5152359008789,32.1500015258789,0.443651884794235,189.733337402344,59.466667175293,267.166656494141,6555.0,42.4000015258789,15.5,-15.89,46.31666,3,[3]
158,Neuburgia celebica,Neuburgia celebica,546785-1,546785-1,Species,25.7059993743896,53.0687484741211,26.2600002288818,24.8907508850098,3041.53540039062,15.7945003509521,926.381774902344,572.461975097656,75.0332412719727,126.67749786377,0.858378231525421,327.5,52.230770111084,712.641052246094,2033.75,65.875,27.9375,-5.016667,144.25,1,"[1, 2, 0]"
159,Neuburgia kochii,Neuburgia kochii,546788-1,546788-1,Species,24.54899978637695,64.85062408447266,25.236249923706048,23.641500473022447,3163.9564208984402,23.523250579834,1130.9775390625,598.4655151367185,436.3019409179685,265.8762435913085,4.33747911453247,356.020843505859,52.0888900756836,567.708312988281,1302.25,71.625,28.0,-6.7833334999999995,146.6916665,1,[1]
160,Neuburgia macroloba,Neuburgia macroloba,546790-1,546790-1,Species,25.6177501678467,93.4195022583008,26.7514991760254,24.3922500610352,2419.03369140625,42.0457496643066,909.643249511719,299.562744140625,0.0,0.0,0.0,371.047607421875,50.9047622680664,707.952392578125,2652.625,72.8571395874023,28.6875,-16.79165,-179.9168335,1,[1]
161,Neuburgia moluccana,Neuburgia moluccana,546791-1,546791-1,Species,25.39025020599365,29.790875434875453,25.85087490081785,24.738375663757353,2524.2462158203098,18.538749694824197,800.137512207031,448.9432373046875,152.159282684326,169.90374755859352,3.260500192642215,265.5,50.62222290039065,476.05952453613247,1187.625,55.6102561950684,27.8125,-0.6028935,127.53979849999999,1,[1]
162,Neuburgia novocaledonica,Neuburgia novocaledonica,77061619-1,77061619-1,Species,21.4357490539551,232.927505493164,24.2674999237061,18.3229999542236,1667.86755371094,51.9720001220703,758.429016113281,222.670745849609,222.847640991211,312.427490234375,5.10929203033447,249.800003051758,53.0416679382324,413.794860839844,1129.5,72.1875,23.375,-21.57639,165.69389,1,"[1, 3]"
163,Neuburgia rumphiana,Neuburgia rumphiana,546793-1,546793-1,Species,25.7199993133545,21.5222492218018,25.9379997253418,25.3937492370605,2835.93969726562,24.269250869751,868.310485839844,559.667724609375,232.7119140625,199.684997558594,3.97927021980286,260.133331298828,51.3333320617676,610.0,1693.5,58.375,26.5625,-3.133333,141.283333,1,[1]
164,Orianthera biloba,Orianthera biloba,77154367-1,77154367-1,Species,20.6257495880127,511.891754150391,27.0287494659424,14.2154998779297,313.422760009766,71.5435028076172,163.570999145508,24.1730003356934,231.207763671875,229.862503051758,0.413682460784912,68.3958358764648,63.7708320617676,96.7916641235352,1647.25,27.6875,11.625,-27.706944,114.7,6,"[6, 8]"
165,Orianthera callosa,Orianthera callosa,77154368-1,77154368-1,Species,15.9061245918274,325.32937622070347,19.8557500839233,11.83949995040895,407.039123535156,26.24774932861325,138.9532470703125,73.84037780761716,210.89057922363298,189.056251525879,0.47573786973953247,86.65625,69.2291679382324,175.29166412353499,2116.25,43.716667175292955,14.6875,-33.6833335,120.057468,7,"[7, 9]"
166,Orianthera campanulata,Orianthera campanulata,77154366-1,77154366-1,Species,16.0009994506836,317.123748779297,19.8573751449585,12.150249958038351,629.13037109375,59.274999618530245,301.053497314453,53.76750183105465,108.653739929199,141.8225021362305,0.7707912921905515,128.8125038146975,62.5999984741211,315.583343505859,2537.375,48.34375,14.25,-33.758014,116.83326199999999,9,"[9, 7, 8]"
167,Orianthera centralis,Orianthera centralis,77154369-1,77154369-1,Species,22.26875019073485,605.56787109375,29.2986249923706,13.84824991226195,322.087493896484,58.0042495727539,136.1798782348635,28.8998746871948,610.2063598632815,612.6399841308595,0.415116846561432,46.6041679382324,75.2604179382324,95.34375,3498.375,18.15625,11.875,-23.926233500000002,131.27730400000002,4,[4]
168,Orianthera exilis,Orianthera exilis,77154370-1,77154370-1,Species,16.7387504577637,448.221496582031,22.7387504577637,10.4884996414185,355.221496582031,30.7017498016357,129.71549987793,61.5400009155273,405.814392089844,409.822509765625,0.506234109401703,69.3125,69.3541641235352,143.35417175293,2475.25,52.5625,14.0,-32.2,119.8,7,"[7, 5]"
169,Orianthera flaviflora,Orianthera flaviflora,77154371-1,77154371-1,Species,17.63650035858155,509.5818786621095,24.29987525939945,10.86525011062625,342.665496826172,47.8376235961914,143.145751953125,45.77899932861325,326.7119140625,325.14125061035145,0.559065401554108,61.7708320617676,64.8277778625488,122.104164123535,1939.625,35.4479160308838,12.125,-31.603333,118.090278,7,"[7, 9, 5, 6, 8, 4]"
170,Orianthera judithiana,Orianthera judithiana,77154372-1,77154372-1,Species,16.7747497558594,464.6153869628905,22.713999748230002,10.7045001983643,355.884246826172,32.2724990844727,132.64237213134749,58.8112506866455,354.315795898438,352.625,0.49689389765262604,71.6770820617676,71.0208320617676,148.1875,2348.5,47.720832824707045,13.5,-32.423121,119.70341350000001,7,"[7, 5, 4]"
171,Orianthera nuda,Orianthera nuda,77154373-1,77154373-1,Species,17.1127490997314,462.265991210938,22.7987499237061,11.2142496109009,283.283508300781,28.0082492828369,99.9017486572266,46.8610000610352,124.728530883789,124.029998779297,0.355649679899216,82.4166641235352,80.75,179.45832824707,2914.0,31.5625,13.8125,-33.21027,136.75046,5,"[7, 5, 4, 9]"
172,Orianthera pusilla,Orianthera pusilla,77154374-1,77154374-1,Species,16.6627502441406,353.592010498047,20.8867492675781,11.7442502975464,1039.845703125,25.4465007781982,336.877014160156,175.745742797852,86.2908554077148,94.8099975585938,1.47059834003448,207.547622680664,53.1041679382324,357.399993896484,1212.75,59.125,18.8125,-33.570853,151.066249,14,"[15, 0, 14]"
173,Orianthera spermacocea,Orianthera spermacocea,77154377-1,77154377-1,Species,19.39099979400635,457.05000305175804,24.622000694274902,13.535249710083,506.8592529296875,81.193000793457,279.353759765625,31.971125602722196,153.969528198242,165.347503662109,0.726809144020081,99.7083358764648,63.2291679382324,142.5,3505.75,44.375,11.875,-30.149583,115.25,8,"[8, 6, 0]"
174,Orianthera tortuosa,Orianthera tortuosa,77154378-1,77154378-1,Species,15.9867496490479,432.819763183594,21.2789993286133,10.5830001831055,353.593994140625,40.221248626709,135.035247802734,53.252498626709,334.886413574219,334.100006103516,0.560095489025116,63.2291679382324,67.4791641235352,133.39582824707,2048.0,41.1875,12.8125,-33.040716,118.853333,7,"[7, 9, 8, 5, 4]"
175,Orianthera wendyae,Orianthera wendyae,77154379-1,77154379-1,Species,16.2674999237061,356.749237060547,21.0400009155273,12.0649995803833,839.92724609375,79.1110000610352,447.217498779297,39.6175003051758,134.445983886719,100.727500915527,1.03783988952637,170.64582824707,60.5,417.229156494141,2987.5,69.125,14.6875,-33.5,115.8,8,"[8, 9]"
176,Phyllangium distylis,Phyllangium distylis,991005-1,991005-1,Species,13.7661247253418,348.1971282958985,18.0563745498657,9.44375038146973,681.71826171875,38.5507507324219,253.740249633789,93.8737487792969,98.5332412719728,109.672500610352,0.58361154794693,250.33332824707,60.71212196350095,569.157409667969,2149.0,66.03125,18.71875,-37.33333,141.81889,9,"[15, 9, 7, 0]"
177,Phyllangium divergens,Phyllangium divergens,991007-1,991007-1,Species,14.3549995422363,370.55448913574196,19.0195007324219,9.962375164031979,595.855773925781,39.8372497558594,235.593246459961,70.9775009155273,145.05401611328148,155.824996948242,0.835839718580246,193.08332824707,62.875,441.818176269531,2659.66674804688,54.9375,17.5,-36.050621500000005,139.92437999999999,9,"[7, 9, 8, 15, 0, 5, 14, 6]"
178,Phyllangium palustre,Phyllangium palustre,991008-1,991008-1,Species,17.3495006561279,367.948760986328,22.6122493743896,12.9602499008179,786.729248046875,81.2737503051758,416.46923828125,39.3557510375977,18.2825489044189,33.4500007629395,0.490885645151138,134.64582824707,61.1458320617676,432.083343505859,2813.75,71.1875,13.0,-32.7,115.8,8,[8]
179,Phyllangium paradoxum,Phyllangium paradoxum,991004-1,991004-1,Species,17.6937503814697,375.528015136719,22.8285007476807,12.9622497558594,797.006469726562,81.036247253418,419.9268646240235,39.1597518920898,66.0055389404297,55.7675018310547,0.499253153800964,147.45832824707,62.4166679382324,391.857147216797,2801.5,61.5,13.46875,-32.389500999999996,115.8954305,8,"[9, 8, 7, 5, 4, 0]"
180,Phyllangium sulcatum,Phyllangium sulcatum,991006-1,991006-1,Species,17.8120002746582,568.197265625,24.5837497711182,11.3462495803833,345.453735351562,32.3257484436035,128.650756835938,48.9630012512207,314.393341064453,315.082489013672,0.603517413139343,65.6190490722656,67.3125,142.6875,1704.5,34.0,13.625,-31.672085,119.08935,7,"[4, 7, 5, 8, 9, 6, 0, 15, 14]"
181,Schizacme archeri,Schizacme archeri,991001-1,991001-1,Species,8.5930004119873,280.084014892578,12.2102499008179,5.03700017929077,1496.171875,25.1695003509521,501.3585052490235,250.832504272461,668.925231933594,571.242492675781,6.25304317474365,587.791687011719,51.3125,1875.14587402344,82.5,125.9375,28.625,-42.668582,146.5197,15,"[16, 15, 29, 0]"
182,Schizacme helmsii,Schizacme helmsii,77154480-1,77154480-1,Species,11.1899995803833,305.319763183594,15.1044998168945,7.19950008392334,2972.0040283203152,13.268000125884999,838.786865234375,619.9076232910155,240.66482543945352,187.8125,3.71620011329651,550.25,49.6666679382324,1735.77783203125,657.9166564941405,128.0,32.5625,-42.213950499999996,171.45813900000002,15,[15]
183,Schizacme montana,Schizacme montana,991002-1,991002-1,Species,8.5930004119873,280.084014892578,12.2480001449585,5.03700017929077,1598.78576660156,25.1695003509521,544.4453735351565,266.9631195068355,557.749298095703,571.242492675781,5.98328733444214,569.625,50.9375,1875.14587402344,102.25,125.714286804199,28.625,-42.783444,146.3060945,15,"[15, 16, 0, 29, 27]"
184,Schizacme novae-zelandiae,Schizacme novae-zelandiae,77154483-1,77154483-1,Species,9.25349998474121,219.904495239258,12.15062522888185,6.81099987030029,3092.2733154296848,11.6723747253418,820.7148742675785,713.8487548828125,360.146820068359,260.3062591552735,9.18123245239258,871.177795410156,51.8333320617676,2044.44445800781,469.75,128.358329772949,32.0,-45.4832415,167.0626085,15,"[16, 15]"
185,Spigelia aceifolia,Spigelia aceifolia,242169-2,242169-2,Species,20.9764995574951,182.1922454833985,22.7432498931885,18.2665004730225,1613.25219726562,89.54387664794925,937.642272949219,38.82987594604489,995.689758300781,927.044982910156,3.25755596160889,196.3125,50.4375,300.041656494141,2644.0,55.375,21.78125,-19.0577775,-43.6233505,11,"[11, 3]"
186,Spigelia alabamensis,Spigelia alabamensis,60458075-2,60458075-2,Species,17.5909996032715,703.625244140625,26.3819999694824,8.22299957275391,1431.98522949219,14.7722501754761,415.735504150391,291.634002685547,150.105270385742,133.899993896484,0.723499000072479,139.33332824707,51.0625,214.5625,1311.5,39.875,21.8125,33.0581725,-87.035611,14,[14]
187,Spigelia alborubra,Spigelia alborubra,77197934-1,77197934-1,Species,23.0518751144409,160.79662322998,24.6841249465942,20.65637493133545,801.1538696289065,43.8343753814697,299.982376098633,92.4106254577638,596.055419921875,592.447509765625,2.5825639963149998,167.03125,61.28125,226.55207824707,2901.0,36.9375,18.8125,-11.07375,-40.457916499999996,3,"[3, 6]"
188,Spigelia amambaiensis,Spigelia amambaiensis,77062626-1,77062626-1,Species,22.2154998779297,215.646743774414,24.361499786377,19.07200050354,1670.45349121094,47.8527488708496,670.552001953125,155.560745239258,385.911346435547,602.474975585938,1.13010036945343,189.41667175293,57.6875,198.1875,1208.5,40.3125,16.25,-21.0667,-56.8333,3,[3]
189,Spigelia amazonica,Spigelia amazonica,60434593-2,60434593-2,Species,25.6340007781982,71.6377487182617,26.5612506866455,24.7744998931885,3315.93969726562,63.2254981994629,1444.83422851562,297.297241210938,97.9806060791016,98.6474990844727,0.387229561805725,215.023803710938,49.2000007629395,290.133331298828,4312.75,49.5625,19.5,4.916667,-67.716667,2,"[2, 1]"
190,Spigelia andersonii,Spigelia andersonii,324568-2,324568-2,Species,18.7609996795654,169.835006713867,20.4775009155273,16.2264995574951,1443.09545898438,87.0477523803711,803.935485839844,29.3642501831055,1218.55407714844,1287.21997070312,2.10108542442322,170.41667175293,51.4375,559.854187011719,4214.5,50.875,20.0625,-18.276667,-43.721667,12,[12]
191,Spigelia andina,Spigelia andina,330744-2,330744-2,Species,17.3374996185303,222.851257324219,19.6407508850098,14.2309999465942,1032.78198242188,81.3262481689453,542.259765625,31.880500793457,1384.20776367188,1556.43005371094,5.59150505065918,209.89582824707,58.4791679382324,292.3125,1466.25,61.375,22.0625,-18.783333,-64.043056,6,"[11, 12, 6, 3, 7]"
192,Spigelia anthelmia,Spigelia anthelmia,318920-2,318920-2,Species,26.138500213623,119.21875,27.5114994049072,24.6685009002686,1455.710754394535,62.857250213623,654.4808654785155,77.7285003662109,85.1052627563477,89.1837501525879,0.579192161560059,228.407409667969,60.0833320617676,304.541656494141,3466.375,50.7999992370605,23.46875,7.6610855,-55.44625,3,"[1, 3, 6, 2, 0, 14, 11, 15, 12, 29]"
193,Spigelia asperifolia,Spigelia asperifolia,546913-1,546913-1,Species,23.1180000305176,132.213256835938,24.230749130249,20.9755001068115,1548.41918945312,74.6467514038086,726.015991210938,42.0530014038086,760.747924804688,746.015014648438,1.03366196155548,132.9375,53.3333320617676,171.08332824707,3097.5,35.0,19.25,-17.961389,-51.2,3,[3]
194,Spigelia beyrichiana,Spigelia beyrichiana,546917-1,546917-1,Species,21.4305000305176,243.299743652344,24.8287506103516,18.1350002288818,1964.8759765625,44.5307502746582,811.776733398438,260.714508056641,231.110809326172,302.274993896484,1.95413136482239,294.958343505859,50.3541679382324,446.288879394531,1608.25,63.125,22.875,-24.038056,-47.416667,14,"[14, 2, 15, 3, 1, 0, 12]"
195,Spigelia blanchetiana,Spigelia blanchetiana,546919-1,546919-1,Species,20.4195003509521,180.584243774414,21.8199996948242,18.1280002593994,1493.75500488281,76.7825012207031,771.174987792969,45.3320007324219,874.686950683594,867.309997558594,2.61288833618164,168.625,52.6458320617676,295.155548095703,2567.0,51.625,20.375,-20.271944,-46.769722,11,"[11, 3, 12, 15]"
196,Spigelia brachystachya,Spigelia brachystachya,546920-1,546920-1,Species,22.0774993896484,154.4899978637695,23.5564994812012,19.6912498474121,861.574493408203,50.1881237030029,322.338882446289,79.9535026550293,596.638488769531,715.54248046875,2.80728006362915,178.17708587646501,58.8958320617676,227.47916412353499,2831.5,45.875,20.25,-12.4252775,-40.8933335,3,"[6, 3, 1]"
197,Spigelia caaguazuensis,Spigelia caaguazuensis,242182-2,242182-2,Species,21.602624893188448,333.1111145019535,25.498999595642097,17.17849922180175,1861.78662109375,24.91237545013425,578.3441467285155,293.496871948242,288.21052551269554,286.091247558594,0.9854222536087041,190.08332824707,52.59375,213.02082824707,986.875,44.65625,20.8125,-25.4118055,-55.868469000000005,14,"[14, 3, 15]"
198,Spigelia carnosa,Spigelia carnosa,242183-2,242183-2,Species,18.464750289917,149.326248168945,20.0034999847412,16.4549999237061,2425.30615234375,69.395751953125,1140.6162109375,174.652496337891,1399.87817382812,1452.14245605469,5.33295202255249,347.520843505859,56.6458320617676,372.3125,462.75,70.5,27.875,16.475556,-91.823333,12,"[1, 3, 2, 12, 15]"
199,Spigelia chiapensis,Spigelia chiapensis,319214-2,319214-2,Species,14.5962495803833,119.071998596191,15.8602504730225,12.8787498474121,1772.79504394531,79.5425033569336,840.371276855469,80.390251159668,1153.19116210938,2218.88256835938,3.75219988822937,224.5,60.9583320617676,292.023803710938,1415.5,59.625,26.4375,16.516667,-92.5,3,"[12, 3]"
200,Spigelia chocoensis,Spigelia chocoensis,77093116-1,77093116-1,Species,25.6334991455078,28.3735008239746,26.0384998321533,25.3257503509521,6553.5,12.8887500762939,2225.11108398438,1583.185546875,54.9556770324707,78.5824966430664,0.601870894432068,485.770843505859,47.5416679382324,1901.125,2809.25,65.8125,25.5,5.516389,-76.650556,1,[1]
201,Spigelia cipoensis,Spigelia cipoensis,285434-2,285434-2,Species,19.850125312805197,184.939750671387,21.8533754348755,17.13924980163575,1805.979248046875,87.9016227722168,1044.95141601562,44.5854988098145,1032.343505859374,1007.4412536621105,3.69035840034485,196.58332824707,49.0833320617676,313.5625,2699.5,55.0,22.6875,-19.1816665,-43.513889,11,"[12, 11]"
202,Spigelia cremnophila,Spigelia cremnophila,1004882-1,1004882-1,Species,22.0774993896484,155.121002197266,23.5564994812012,19.6912498474121,870.01123046875,52.3009986877441,327.088012695312,78.7052536010742,590.080322265625,715.54248046875,3.72185206413269,176.97917175293,58.8958320617676,225.39582824707,2831.5,46.625,20.25,-12.455556,-41.45,3,[3]
203,Spigelia flava,Spigelia flava,300211-2,300211-2,Species,21.3482494354248,149.988250732422,22.7292499542236,18.9897499084473,791.828979492188,82.349250793457,409.331237792969,21.5307502746582,1211.54016113281,938.697509765625,5.49819183349609,162.888885498047,57.25,181.0,3987.0,49.0,19.625,-13.523611,-41.9166835,3,"[3, 12, 15]"
204,Spigelia gentianoides,Spigelia gentianoides,30333464-2,30333464-2,Species,19.577750205993652,580.8081359863285,26.58162498474125,11.7937498092651,1453.55560302734,31.385375022888148,529.9401245117185,256.118492126465,42.318559646606445,34.26125049591065,0.203783232718706,634.415969848633,51.7604160308838,287.27082824707054,1184.125,39.75,12.625,30.450375,-84.422042,14,[14]
205,Spigelia genuflexa,Spigelia genuflexa,77114017-1,77114017-1,Species,25.0610008239746,147.400253295898,26.7032508850098,22.9652500152588,1412.5537109375,41.5914993286133,573.06298828125,212.122497558594,122.601104736328,121.970001220703,0.75976949930191,168.6875,53.3333320617676,266.520843505859,2713.75,53.25,19.8125,-12.0183335,-38.026666500000005,1,[1]
206,Spigelia gracilis,Spigelia gracilis,546938-1,546938-1,Species,20.8717498779297,153.506256103516,22.3742504119873,18.4777507781982,823.959228515625,74.6907501220703,319.931762695312,49.3974990844727,954.620483398438,940.919982910156,2.43025588989258,159.125,59.8541679382324,205.04167175293,3001.0,42.0,19.6875,-11.901111,-41.333333,3,"[6, 11, 3, 12, 15]"
207,Spigelia guianensis,Spigelia guianensis,546940-1,546940-1,Species,25.6483745574951,63.293375015258746,26.343250274658253,24.921250343322747,2687.617919921875,45.25462341308595,991.865509033203,348.946502685547,84.78116226196289,96.65250015258809,0.4019403457641605,202.861114501953,44.40625,255.058036804199,2381.0,48.0,22.25,0.3265445,-60.80505,1,"[1, 2]"
208,Spigelia hedyotidea,Spigelia hedyotidea,546944-1,546944-1,Species,19.7350006103516,636.378234863281,27.3125,11.2622499465942,894.478515625,34.5737495422363,293.544494628906,143.565246582031,465.326873779297,470.837493896484,1.13149273395538,220.79167175293,70.4102554321289,250.033340454102,861.5,50.75,22.9375,29.57045,-98.144066,14,"[14, 1, 4, 12, 7, 6, 2, 3, 15]"
209,Spigelia herzogiana,Spigelia herzogiana,242201-2,242201-2,Species,24.0497493743896,194.518997192383,25.816499710083,21.1827507019043,2058.27905273438,56.5924987792969,926.209228515625,173.587493896484,212.880889892578,217.012496948242,0.123737432062626,249.85417175293,53.125,344.479156494141,1769.25,47.0,21.875,-16.7261,-64.435,1,[1]
210,Spigelia hirtula,Spigelia hirtula,77080992-1,77080992-1,Species,20.6217498779297,173.8591232299805,22.2901248931885,17.9935007095337,1573.561218261715,88.69587326049805,899.1315002441405,33.2855005264282,1072.1759338378906,1016.907501220703,2.81813168525696,169.67708587646501,51.8229160308838,244.7083282470705,2933.0,50.71875,20.90625,-18.681528,-43.8041665,3,"[3, 11]"
211,Spigelia hurleyi,Spigelia hurleyi,20002791-1,20002791-1,Species,20.8264999389648,177.871002197266,22.4402503967285,18.1709995269775,1359.80419921875,86.0175018310547,760.342224121094,36.0562515258789,1064.41271972656,1007.27252197266,2.91028165817261,158.22917175293,51.2291679382324,270.5625,3213.5,49.625,20.875,-18.401667,-43.383333,11,"[11, 3]"
212,Spigelia insignis,Spigelia insignis,324567-2,324567-2,Species,21.2320003509521,367.00187683105503,25.808500289917,16.4099998474121,1604.0092163085951,31.93212509155275,590.347381591797,224.1008682250975,154.678665161133,128.830001831055,1.10559749603271,230.41666412353499,55.3020820617676,245.466659545898,1693.5,54.4285697937012,22.9375,-25.7998615,-57.1930555,14,"[6, 2, 14, 12]"
213,Spigelia kleinii,Spigelia kleinii,242207-2,242207-2,Species,16.8465003967285,277.915740966797,20.0799999237061,13.1759996414185,2382.24194335938,20.5532493591309,703.965270996094,441.801239013672,1036.8974609375,1076.70495605469,1.88495445251465,354.125,50.0208320617676,402.125,975.0,86.75,29.9375,-25.3994719783354,-51.458056,15,[15]
214,Spigelia kuhlmannii,Spigelia kuhlmannii,546954-1,546954-1,Species,22.463249206543,153.506256103516,23.9507503509521,20.1502494812012,713.5615234375,44.3637504577637,298.97900390625,84.5429992675781,711.540161132812,703.497497558594,2.45918703079224,168.97917175293,61.6666679382324,220.05208587646501,2963.75,37.1875,17.0,-10.412638999999999,-40.25,3,"[6, 3]"
215,Spigelia laurina,Spigelia laurina,546956-1,546956-1,Species,23.5174999237061,147.568252563477,25.1407508850098,21.4267501831055,1467.55126953125,20.5862503051758,469.348510742188,211.159255981445,298.41552734375,285.494995117188,2.19067907333374,248.0,52.9791679382324,362.666656494141,2821.75,55.4285697937012,22.9375,-14.499722,-39.465833,1,"[3, 0, 1, 2, 6]"
216,Spigelia leiocarpa,Spigelia leiocarpa,20002813-1,20002813-1,Species,25.6310005187988,48.0572509765625,26.0212497711182,24.9192504882812,1855.89050292969,44.6817512512207,719.148010253906,195.516006469727,183.083099365234,181.292495727539,0.152281656861305,173.83332824707,48.8222236633301,238.511108398438,3004.75,45.0666656494141,22.8125,-9.1839,-74.14,1,[1]
217,Spigelia linarioides,Spigelia linarioides,546958-1,546958-1,Species,21.330249786377,160.85075378418,23.0547504425049,18.7479991912842,1094.09594726562,84.4267501831055,628.796020507812,41.7452507019043,923.382263183594,890.132507324219,2.56687211990356,162.75,56.1666679382324,219.1875,2801.0,47.0,19.9375,-16.6,-43.116667,3,"[12, 11, 6, 3]"
218,Spigelia loganioides,Spigelia loganioides,546960-1,546960-1,Species,20.9955005645752,492.846252441406,26.9836254119873,14.2775001525879,1366.7150268554701,49.85950088500975,597.5971069335935,195.58074951171852,23.52908611297605,21.93625020980835,0.1532419994473455,1491.3690795898451,56.18956184387205,381.3787841796875,563.5,40.74725341796875,10.9375,29.2079795,-82.5715015,14,[14]
219,Spigelia longiflora,Spigelia longiflora,546961-1,546961-1,Species,17.7784996032715,272.592742919922,20.3125,13.7247495651245,1209.14331054688,78.2864990234375,632.323974609375,73.2720031738281,1671.50134277344,1516.9775390625,8.56772041320801,266.3125,66.6041641235352,328.895843505859,327.0,66.75,27.0625,21.177222,-99.13665,11,"[12, 7, 11, 3, 6, 2]"
220,Spigelia luciatlantica,Spigelia luciatlantica,20007552-1,20007552-1,Species,24.1337509155273,189.401504516602,26.3687496185303,21.4437503814697,1380.82751464844,87.1520004272461,802.107482910156,39.4907493591309,366.232696533203,297.274993896484,0.738700866699219,164.642852783203,52.3111114501953,228.880950927734,2199.75,46.0666656494141,22.6875,-19.767778,-42.636944,3,[3]
221,Spigelia lundiana,Spigelia lundiana,546964-1,546964-1,Species,19.59662437438965,186.84513092040999,21.65887451171875,16.897000312805197,1807.39245605469,89.1125030517578,1051.58703613281,45.2789993286133,1038.608001708985,1023.866210937499,3.35745406150818,208.125,49.8958320617676,266.799987792969,2563.125,55.125,23.375,-19.8583335,-43.6183335,12,"[3, 12, 11]"
222,Spigelia macrophylla,Spigelia macrophylla,546965-1,546965-1,Species,21.4305000305176,190.102249145508,24.0267505645752,19.0629997253418,1751.64025878906,41.4824981689453,691.263488769531,217.442749023438,651.354553222656,302.274993896484,3.51773166656494,291.282043457031,50.4047622680664,437.142852783203,1481.25,73.2857131958008,22.875,-23.335,-44.816667,1,"[1, 2]"
223,Spigelia marilandica,Spigelia marilandica,546966-1,546966-1,Species,16.1012496948242,743.5615234375,25.6317501068115,5.94824981689453,1395.9267578125,16.132999420166,410.902008056641,279.752014160156,187.401657104492,189.970001220703,0.740516364574432,185.102569580078,53.78977394104005,232.58332824707,1669.75,43.5669651031494,22.875,34.683889,-86.532538,14,"[14, 25, 0]"
224,Spigelia martiana,Spigelia martiana,546967-1,546967-1,Species,19.5855007171631,357.5,25.1207504272461,14.5782499313354,1843.04248046875,23.7657508850098,562.758728027344,333.891235351562,169.091415405273,191.774993896484,1.06168222427368,250.33332824707,51.9583320617676,249.91667175293,1897.75,57.466667175293,25.5625,-26.62,-55.42,14,"[14, 15, 7, 1]"
225,Spigelia megapotamica,Spigelia megapotamica,77093118-1,77093118-1,Species,25.5262508392334,45.2029991149902,25.8560009002686,24.8332500457764,3137.55346679688,22.1112499237061,1043.83947753906,602.767028808594,102.927978515625,96.7750015258789,0.262453198432922,213.444442749023,45.466667175293,299.799987792969,1805.75,55.0,20.1875,0.516667,-67.266667,1,[1]
226,Spigelia mexicana,Spigelia mexicana,546968-1,546968-1,Species,26.3387508392334,127.696998596191,27.9122505187988,24.6124992370605,682.104248046875,106.299003601074,442.459747314453,12.4180002212524,360.875335693359,507.172485351562,5.67410516738892,220.14582824707,67.5,215.97917175293,522.5,43.5,25.1875,18.7314395,-101.674196,6,[6]
227,Spigelia nicotianiflora,Spigelia nicotianiflora,242218-2,242218-2,Species,23.09287452697755,263.8316192626955,25.9813747406006,19.089750289917,1707.5419921875,35.763999938964844,583.488220214844,200.9157485961915,252.563705444336,309.123748779297,1.2562455534934949,193.90625,54.2291660308838,232.46875,1336.75,40.91875076293945,19.125,-22.647914999999998,-56.26652,2,"[2, 12, 3, 14]"
228,Spigelia novogranatensis,Spigelia novogranatensis,331049-2,331049-2,Species,19.2035007476807,33.5118751525879,19.585750579834,18.8162498474121,3542.2989501953098,33.86087608337405,1234.367980957035,518.6663665771484,1287.054016113285,1465.96252441406,7.1743335723877,406.088882446289,50.9375,658.666687011719,1367.0,91.8125,27.9375,6.2999985,-75.10833149999999,1,"[1, 15]"
229,Spigelia olfersiana,Spigelia olfersiana,546974-1,546974-1,Species,19.9737491607666,216.056243896484,22.255500793457,16.8882503509521,1442.36303710938,77.3247528076172,745.975219726562,56.2760009765625,982.648193359375,932.392517089844,1.48119604587555,197.79167175293,51.3125,242.22917175293,2313.25,51.8125,22.6875,-21.76,-45.03,11,"[11, 3]"
230,Spigelia paraguariensis,Spigelia paraguariensis,242222-2,242222-2,Species,21.8377494812012,358.493499755859,26.2584991455078,17.0902500152588,1639.79150390625,32.2007484436035,545.723266601562,222.142242431641,152.263153076172,119.452499389648,0.717853307723999,176.97917175293,54.2083320617676,211.04167175293,1680.0,40.625,19.8125,-25.65,-57.016667,14,"[14, 2, 3, 7]"
231,Spigelia pedunculata,Spigelia pedunculata,546982-1,546982-1,Species,16.2027492523193,20.8227500915527,16.4532508850098,15.9812498092651,2541.30859375,42.0584983825684,971.1982421875,293.727996826172,2489.88916015625,2019.69494628906,9.86279582977295,394.083343505859,52.5208320617676,581.104187011719,1158.25,97.75,28.6875,1.016667,-78.15,15,"[9, 29, 1, 15, 2, 3, 12]"
232,Spigelia persicarioides,Spigelia persicarioides,242225-2,242225-2,Species,24.0042495727539,27.3247509002686,24.4047508239746,23.7172508239746,6553.5,23.0927505493164,2897.21240234375,1512.59497070312,40.437671661377,348.002502441406,4.74847841262817,393.791656494141,47.9555549621582,1310.125,3279.5,61.7333335876465,27.5,3.733333,-76.95,1,[1]
233,Spigelia petiolata,Spigelia petiolata,20002804-1,20002804-1,Species,25.6310005187988,48.0572509765625,26.0212497711182,24.9192504882812,1855.89050292969,44.6817512512207,719.148010253906,195.516006469727,183.083099365234,181.292495727539,0.152281656861305,173.83332824707,48.8222236633301,238.511108398438,3004.75,45.0666656494141,22.8125,-9.1839,-74.14,1,[1]
234,Spigelia polystachya,Spigelia polystachya,546986-1,546986-1,Species,26.1714992523193,130.317749023437,27.958374977111802,24.02637481689455,1129.940673828125,79.601375579834,540.2209777832035,56.0714988708496,162.760383605957,181.9662551879885,0.5202921628952031,218.84615325927751,64.5208358764648,267.520843505859,3158.25,53.9450550079346,25.34375,12.258333499999999,-85.8916665,3,"[3, 2, 6, 1]"
235,Spigelia pulchella,Spigelia pulchella,546987-1,546987-1,Species,21.5510005950928,151.900497436523,23.0187492370605,19.2202491760254,904.70947265625,57.5452499389648,382.58486938476597,73.97799682617185,857.0263061523435,813.387512207031,3.49899816513062,174.41667175293,57.7708320617676,223.35417175293,3093.25,46.625,20.1875,-12.958234000000001,-41.388472,3,"[3, 12, 6, 15, 1]"
236,Spigelia pusilla,Spigelia pusilla,546989-1,546989-1,Species,20.20025062561035,285.261749267578,23.3127498626709,16.6377506256104,1735.7048950195299,29.8288745880127,624.015380859375,290.3500061035155,498.88642883300804,476.790008544922,2.93785297870636,297.4002990722655,51.0208320617676,456.6538391113285,1283.375,65.1401100158691,24.3125,-24.597361,-49.081111500000006,14,"[3, 15, 14, 1, 2, 11]"
237,Spigelia pygmaea,Spigelia pygmaea,242228-2,242228-2,Species,26.0947494506836,181.316497802734,27.9272499084473,23.6410007476807,1223.01794433594,69.2720031738281,557.610778808594,91.6474990844727,94.2770080566406,107.580001831055,0.519664287567139,288.604156494141,72.4166641235352,350.5,139.75,72.466667175293,27.125,19.23528,-89.71667,3,"[3, 2, 1]"
238,Spigelia queretarensis,Spigelia queretarensis,77093115-1,77093115-1,Species,18.1984996795654,282.103759765625,21.2005004882812,14.1715002059937,1209.14331054688,79.4107513427734,635.600219726562,79.3392486572266,1410.36291503906,1309.16003417969,5.55644130706787,299.854156494141,66.6041641235352,387.729156494141,327.0,70.8125,27.125,21.256111,-99.1875,11,[11]
239,Spigelia riedeliana,Spigelia riedeliana,242233-2,242233-2,Species,20.99899959564205,169.76887512207,22.55437564849855,18.40537548065185,1253.60070800781,90.8726272583008,725.267028808594,22.18687534332275,946.950134277344,992.992523193361,2.451202630996705,155.54166412353499,54.1666679382324,173.40625,3142.5,48.625,20.625,-17.901664,-43.7374615,3,"[11, 3, 12]"
240,Spigelia rojasiana,Spigelia rojasiana,242235-2,242235-2,Species,18.0375003814697,277.915740966797,22.597749710083,14.2259998321533,1792.23876953125,27.4249992370605,579.913024902344,301.859252929688,620.249328613281,609.934997558594,1.46342635154724,246.33332824707,51.8541679382324,343.229156494141,1068.75,69.8125,26.0625,-25.395556,-51.4588489262839,14,"[15, 14, 3]"
241,Spigelia humboldtiana,Spigelia humboldtiana,546947-1,546947-1,Species,22.96875,148.865005493164,24.8857498168945,20.9090003967285,2314.04223632812,60.6949996948242,1058.38671875,177.530502319336,405.196685791016,431.517486572266,3.28923368453979,323.083343505859,56.6875,352.0,1377.75,62.75,26.3125,14.483333,-88.93,2,"[1, 2, 15, 3, 14, 12, 11, 7, 0, 6]"
242,Spigelia scabrella,Spigelia scabrella,547002-1,547002-1,Species,18.2332496643066,199.673751831055,20.8455009460449,15.1927499771118,941.177001953125,103.025497436523,601.634765625,33.8479995727539,2007.51525878906,1945.625,4.45880079269409,236.52082824707,61.9375,223.380950927734,146.5,51.3846168518066,26.875,19.667622,-101.360971,12,"[12, 3, 6, 11]"
243,Spigelia schlechtendaliana,Spigelia schlechtendaliana,547003-1,547003-1,Species,20.9764995574951,176.809494018555,22.8419990539551,18.2665004730225,1584.68603515625,87.1520004272461,820.468994140625,31.5125007629395,949.717468261719,954.265014648438,2.92778134346008,165.5625,53.3958320617676,233.1875,2588.5,52.25,21.5,-18.166667,-43.776389,3,"[3, 12, 11, 15, 1]"
244,Spigelia schultesii,Spigelia schultesii,77106774-1,77106774-1,Species,24.8717498779297,47.6105003356934,25.2987499237061,24.1065006256104,3325.78564453125,19.4230003356934,1077.46655273438,699.113525390625,176.739608764648,157.112503051758,0.465950548648834,252.79167175293,44.4583320617676,378.645843505859,2213.0,54.0625,18.3125,-0.08,-70.5,1,[1]
245,Spigelia sellowiana,Spigelia sellowiana,547007-1,547007-1,Species,20.2600002288818,180.687126159668,21.959875106811502,17.55299949646,1607.5139770507799,88.7994995117188,913.0679931640625,36.4449996948242,1019.75347900391,1056.9712524414049,3.48942971229553,184.55207824707,52.4000015258789,254.5,2807.75,52.21875,22.125,-19.0480555,-43.7318055,11,"[11, 12, 3]"
246,Spigelia sordida,Spigelia sordida,77080991-1,77080991-1,Species,20.8264999389648,167.304992675781,22.4402503967285,18.2660007476807,1195.56604003906,93.5930023193359,700.967224121094,16.8535003662109,1007.52075195312,1007.27252197266,3.26764297485352,165.16667175293,55.3125,184.52082824707,3095.0,49.25,19.8125,-17.015889,-43.345,3,"[3, 12]"
247,Spigelia spartioides,Spigelia spartioides,547010-1,547010-1,Species,20.1612501144409,187.602752685547,22.36712455749515,17.394000053405748,1500.18432617188,86.89312744140625,861.6334838867185,41.7905006408691,942.548461914062,926.6100158691405,3.6069860458374,192.53125,52.6458320617676,254.36457824707,2453.25,51.75,23.25,-19.455564000000003,-43.401250000000005,3,"[11, 12, 3, 6]"
248,Spigelia speciosa,Spigelia speciosa,547011-1,547011-1,Species,17.869499206543,126.164749145508,19.4575004577637,16.1439990997314,1440.74499511719,102.558250427246,873.847473144531,38.8802490234375,1927.46813964844,1918.43249511719,9.84224510192871,312.479156494141,58.8125,317.083343505859,607.0,60.3125,26.75,17.594304,-99.837803,3,"[12, 3, 14]"
249,Spigelia sphagnicola,Spigelia sphagnicola,547012-1,547012-1,Species,25.8530006408691,176.055252075195,28.043249130249,23.6012496948242,1282.84521484375,68.7252502441406,562.254516601562,82.2017517089844,16.0914134979248,3.46000003814697,0.0597687177360058,439.190490722656,68.5833358764648,505.3125,1406.5,62.0625,29.375,21.62117,-79.03635,3,[3]
250,Spigelia splendens,Spigelia splendens,547015-1,547015-1,Species,21.9969997406006,136.19075012207048,23.8041257858276,20.058500289917,1531.35522460938,91.7117462158203,834.91064453125,39.8367500305176,946.149597167969,886.200012207031,6.09129047393799,223.933334350586,63.3039779663086,248.66667175293,486.875,54.4545440673828,28.25,16.807997737727348,-93.07616355314164,3,"[3, 12, 2, 1]"
251,Spigelia spruceana,Spigelia spruceana,77155583-1,77155583-1,Species,26.6252498626709,83.6957473754883,27.7604999542236,25.6474990844727,1763.34448242188,70.5595016479492,836.30322265625,48.0169982910156,178.872573852539,170.595001220703,0.356557875871658,182.70832824707,49.8125,198.60417175293,3443.25,40.9375,19.9375,-6.369433,-48.783344,3,[3]
252,Spigelia stenocardia,Spigelia stenocardia,77089479-1,77089479-1,Species,20.9764995574951,180.246994018555,22.7432498931885,18.2665004730225,1613.25219726562,89.5807495117188,937.642272949219,37.2210006713867,995.689758300781,927.044982910156,3.25755596160889,196.3125,50.4375,300.041656494141,2588.5,55.75,21.4375,-19.09975,-43.676194,3,"[3, 12]"
253,Spigelia stenophylla,Spigelia stenophylla,547016-1,547016-1,Species,17.8864994049072,375.273254394531,23.4435005187988,13.1759996414185,1957.62951660156,20.5160007476807,595.341491699219,365.192993164062,216.011077880859,205.042495727539,1.3520200252533,285.166656494141,51.7555541992188,300.395843505859,975.0,64.8125,25.4375,-27.65,-55.278611,14,"[14, 15, 7]"
254,Spigelia tetraptera,Spigelia tetraptera,242239-2,242239-2,Species,18.4192504882812,274.996002197266,22.0685005187988,14.9174995422363,1956.64697265625,36.4092483520508,686.780029296875,306.985748291016,563.58447265625,517.830017089844,2.99154448509216,343.354156494141,50.375,491.125,1234.5,74.1875,25.375,-25.37,-48.883333,14,"[15, 11, 2, 14, 3, 1, 12]"
255,Spigelia texana,Spigelia texana,547019-1,547019-1,Species,20.8075008392334,581.542724609375,27.9322490692139,12.9645004272461,1304.17553710938,20.8182506561279,384.270263671875,238.021499633789,21.8614959716797,20.9575004577637,0.110521666705608,236.5625,63.1777763366699,270.645843505859,1847.5,49.2222213745117,23.9375,29.381783,-95.77806,14,[14]
256,Spigelia trispicata,Spigelia trispicata,319215-2,319215-2,Species,21.3687496185303,133.717254638672,23.2532501220703,19.7495002746582,1118.60998535156,111.229248046875,738.651489257812,15.1440000534058,1536.966796875,1340.52502441406,7.93314504623413,283.9375,61.625,249.125,484.25,48.9375,26.8125,18.1775,-101.163056,3,[3]
257,Spigelia vestita,Spigelia vestita,242243-2,242243-2,Species,17.40362548828125,321.7491302490235,21.22499942779545,12.8150000572205,1687.16955566406,16.41912508010865,548.473236083984,341.026763916016,650.745162963867,698.7362365722655,1.154317915439605,281.125,50.46875,378.45832824707054,941.625,72.0,27.1875,-27.92375,-52.057778,14,"[14, 15]"
258,Strychnos aculeata,Strychnos aculeata,547024-1,547024-1,Species,25.3059997558594,91.7817535400391,26.3902492523193,24.2647495269775,1771.220703125,58.8697509765625,732.900024414062,123.634002685547,133.520782470703,139.330001831055,0.491322726011276,183.16667175293,50.3958320617676,244.0,11039.0,40.3125,18.25,5.083333,-3.5,3,"[1, 3, 2]"
259,Strychnos acuta,Strychnos acuta,547027-1,547027-1,Species,22.1186246871948,208.886749267578,24.10550022125245,19.6247501373291,1449.1630249023451,52.3634986877441,689.613525390625,159.14324951171898,245.5997314453125,429.63374328613304,2.10866355895996,238.461532592773,53.466667175293,295.600006103516,2390.5,55.6666679382324,21.375,-22.895,-43.0822225,3,"[1, 2, 3, 14, 15, 11]"
260,Strychnos afzelii,Strychnos afzelii,547031-1,547031-1,Species,25.6677494049072,104.090751647949,26.9247493743896,24.4772491455078,1543.49975585938,64.244499206543,713.976013183594,80.8282470703125,131.512466430664,131.904998779297,0.513959646224976,193.16667175293,53.2083320617676,257.600006103516,11815.25,42.3125,18.1875,6.716667,-6.133333,3,"[3, 2, 1]"
261,Strychnos alvimiana,Strychnos alvimiana,247277-2,247277-2,Species,24.3172492980957,133.483993530273,25.8819999694824,22.4685001373291,2005.08776855469,19.6277503967285,617.724731445312,387.517486572266,30.5983371734619,55.3025016784668,0.586670160293579,247.844451904297,50.0888900756836,530.200012207031,3130.75,59.466667175293,25.6875,-14.3,-39.0333165,1,"[0, 1]"
262,Strychnos amazonica,Strychnos amazonica,247278-2,247278-2,Species,25.6242504119873,52.5589981079102,25.9974994659424,24.9092502593994,2531.5537109375,40.7637481689453,959.827392578125,285.540985107422,118.6343498229985,101.207496643066,0.43137782812118497,199.50893402099598,44.3846168518066,348.238098144531,2446.5,50.3333320617676,22.5625,-3.0751615,-70.155,1,"[1, 3, 2]"
263,Strychnos angolensis,Strychnos angolensis,547038-1,547038-1,Species,24.34400081634525,93.0695037841797,25.5657501220703,23.0386247634888,1723.34375,68.164249420166,846.377868652344,65.68687438964844,490.5069274902345,495.776245117188,0.766037166118622,187.111114501953,51.10208320617675,242.25,6553.25,47.9732151031494,21.53125,-0.8170555,13.447805500000001,3,"[3, 1, 12, 2, 0, 11]"
264,Strychnos angustiflora,Strychnos angustiflora,547039-1,547039-1,Species,22.8600006103516,439.777496337891,28.2649993896484,16.7320003509521,2049.54223632812,69.4962463378906,937.242004394531,127.669250488281,78.3545684814453,77.7074966430664,1.45739686489105,203.10417175293,53.9166679382324,251.318756103516,1998.5,54.4444427490234,22.0,22.219313,111.90177,11,"[11, 3, 2, 14]"
265,Strychnos araguaensis,Strychnos araguaensis,247279-2,247279-2,Species,25.2302494049072,80.4897537231445,26.0917491912842,24.5912494659424,2003.78674316406,71.83637619018555,936.712524414062,35.2143745422363,328.7312927246095,319.521240234375,0.798537343740463,162.95832824707,48.3645839691162,216.8125,2242.5,45.46875,17.9375,-9.52,-52.6116665,3,"[3, 2]"
266,Strychnos axillaris,Strychnos axillaris,547050-1,547050-1,Species,23.49062442779545,134.351745605469,25.2857494354248,21.53474998474125,1846.74304199219,43.07724952697755,716.6213684082035,122.6959991455075,219.2077560424805,223.815002441406,2.172199845314025,237.254165649414,54.8958339691162,330.924987792969,1370.875,54.0833320617676,23.375,-4.5129055000000005,141.967841,1,"[14, 11, 6, 3, 1, 2, 0]"
267,Strychnos asperula,Strychnos asperula,247280-2,247280-2,Species,24.9360008239746,71.150749206543,25.6887493133545,23.9150009155273,2078.69873046875,57.9459991455078,901.841491699219,150.491500854492,218.110809326172,219.0625,0.461387455463409,189.0,48.2291679382324,283.911102294922,2368.5,47.5999984741211,22.8125,-10.539271,-68.33,1,"[1, 2, 3]"
268,Strychnos asterantha,Strychnos asterantha,547045-1,547045-1,Species,24.3819999694824,87.3247528076172,25.8484992980957,22.9722499847412,2550.43872070312,61.6727485656738,1177.28955078125,104.322746276855,654.470886230469,495.802490234375,0.649587988853455,224.95832824707,51.5,269.416656494141,7210.75,48.9375,21.75,4.383333,10.266667,2,"[2, 3]"
269,Strychnos atlantica,Strychnos atlantica,247281-2,247281-2,Species,24.3427505493164,136.086242675781,26.152250289917,22.3457508087158,1535.82873535156,24.1625003814697,532.232971191406,246.063003540039,53.8254852294922,83.0749969482422,0.696586728096008,254.33332824707,52.476188659668,362.666656494141,3236.75,55.5,22.375,-14.785833,-39.0642869012885,1,"[1, 3, 2, 0]"
270,Strychnos bahiensis,Strychnos bahiensis,247282-2,247282-2,Species,24.243624687194853,136.9274978637695,25.8261251449585,22.3457508087158,1712.06298828125,19.51525020599365,521.285766601562,336.498504638672,92.828254699707,104.855003356934,1.078684777021407,275.583343505859,52.0,415.354156494141,3012.0,54.783332824707045,24.09375,-14.379306,-39.0931945,1,"[1, 6, 3, 2]"
271,Strychnos barnhartiana,Strychnos barnhartiana,247283-2,247283-2,Species,25.9072494506836,44.1769981384277,26.3812503814697,25.2477493286133,2959.591796875,26.0337505340576,944.686767578125,471.036987304688,85.1052627563477,99.8225021362305,0.325266450643539,230.952377319336,41.7777786254883,321.571441650391,2202.0,55.1666679382324,22.5,-2.768745,-67.9397,1,[1]
